name:ru,name:en,addr:country,addr:region,addr:district,name,wikipedia,longitude,latitude,id
Невель,Nevel,RU,Псковская область,Невельский район,Невель,ru:Невель,29.917128,56.017616,26163795
Кандалакша,Kandalaksha,RU,Мурманская область,Кандалакшский район,Кандалакша,ru:Кандалакша,32.4130551,67.151442,26878551
Апатиты,Apatity,RU,Мурманская область,муниципальный округ Апатиты,Апатиты,ru:Апатиты,33.404392,67.568626,26898767
Калевала,Kalevala,RU,,Калевальский район,Калевала,ru:Калевала (Карелия),31.180172,65.200096,26898768
Кировск,Kirovsk,RU,Мурманская область,муниципальный округ Кировск,Кировск,ru:Кировск (Мурманская область),33.6637527,67.6151331,26898769
Надвоицы,Nadvoitsy,RU,,Сегежский район,Надвоицы,ru:Надвоицы,34.2660109,63.8924047,26898776
Сегежа,Segezha,RU,,Сегежский район,Сегежа,ru:Сегежа,34.3106868,63.7435087,26898825
Зеленоборский,Zelenoborskij,RU,Мурманская область,Кандалакшский район,Зеленоборский,ru:Зеленоборский,32.3871,66.857452,26898826
Кондопога,Kondopoga,RU,,Кондопожский район,Кондопога,ru:Кондопога,34.268185,62.20929,26921263
Мезень,Mezen',RU,Архангельская область,Мезенский район,Мезень,ru:Мезень (город),44.244141,65.843956,26925161
Каргополь,Kargopol',RU,Архангельская область,Каргопольский муниципальный округ,Каргополь,ru:Каргополь,38.940796,61.509121,26952234
Вельск,Vel'sk,RU,Архангельская область,Вельский район,Вельск,ru:Вельск,42.0979582,61.0756446,26958524
Вышний Волочёк,Vysnij Volocek,RU,Тверская область,Вышневолоцкий городской округ,Вышний Волочёк,ru:Вышний Волочёк,34.5720732,57.5883648,27001056
Луга,Luga,RU,Ленинградская область,Лужский район,Луга,ru:Луга,29.8475013,58.735699,27023177
Балтийск,Baltiysk,RU,Калининградская область,,Балтийск,ru:Балтийск,19.8941584,54.6437214,27048978
Опочка,Opochka,RU,Псковская область,,Опочка,ru:Опочка,28.656818,56.71167,27081144
Себеж,Sebezh,RU,Псковская область,Себежский район,Себеж,ru:Себеж,28.4848862,56.2774187,27084320
Тихвин,Tikhvin,RU,Ленинградская область,Тихвинский район,Тихвин,ru:Тихвин,33.5418624,59.644323,27446511
Борисоглебский,Borisoglebsky,RU,Ярославская область,Борисоглебский район,Борисоглебский,ru:Борисоглебский (Ярославская область),39.1476952,57.2578179,27464354
Ростов,Rostov,RU,Ярославская область,Ростовский район,Ростов,ru:Ростов,39.4249557,57.1860127,27464486
Хвойная,,RU,Новгородская область,Хвойнинский муниципальный округ,Хвойная,ru:Хвойная (Хвойнинский район),34.5121844,58.8960621,27492465
Славянск-на-Кубани,Slavyansk-na-Kubani,RU,Краснодарский край,Славянский район,Славянск-на-Кубани,ru:Славянск-на-Кубани,38.1244609,45.2590875,29750243
Темрюк,Temryuk,RU,Краснодарский край,Темрюкский район,Темрюк,ru:Темрюк,37.3905481,45.2751663,29751525
Анапа,Anapa,RU,Краснодарский край,,Анапа,ru:Анапа,37.316887,44.894272,29804102
Приморско-Ахтарск,Primorsko-Akhtarsk,RU,Краснодарский край,Приморско-Ахтарский район,Приморско-Ахтарск,ru:Приморско-Ахтарск,38.1554803,46.043181,29866496
Ейск,Yeysk,RU,Краснодарский край,Ейский район,Ейск,ru:Ейск,38.2747987,46.7112094,29866526
Геленджик,Gelendzhik,RU,Краснодарский край,,Геленджик,ru:Геленджик,38.0766832,44.5609447,34181150
Кабардинка,Kabardinka,RU,Краснодарский край,городской округ Геленджик,Кабардинка,ru:Кабардинка,37.9395292,44.6515718,34181855
Дубна,Dubna,RU,Московская область,городской округ Дубна,Дубна,ru:Дубна,37.1623696,56.7362705,34389205
Конаково,Konakovo,RU,Тверская область,Конаковский район,Конаково,ru:Конаково,36.7775654,56.7131572,34389206
Приморск,Primorsk,RU,Ленинградская область,Выборгский район,Приморск,ru:Приморск (Ленинградская область),28.616673,60.366665,34390476
Высоцк,Vysotsk,RU,Ленинградская область,Выборгский район,Высоцк,ru:Высоцк,28.5688339,60.6280319,34390960
Светогорск,Svetogorsk,RU,Ленинградская область,Выборгский район,Светогорск,ru:Светогорск,28.8701036,61.1112542,34391623
Каменногорск,Kamennogorsk,RU,Ленинградская область,Выборгский район,Каменногорск,ru:Каменногорск,29.1303401,60.9526102,34391624
Новая Ладога,Novaya Ladoga,RU,Ленинградская область,Волховский район,Новая Ладога,ru:Новая Ладога,32.3147626,60.1052425,34392894
Волхов,Volkhov,RU,Ленинградская область,Волховский район,Волхов,ru:Волхов (город),32.3276803,59.9275868,34392911
Беслан,Beslan,RU,,Правобережный район,Беслан,ru:Беслан,44.5375689,43.1875572,34395335
Магас,Magas,RU,Ингушетия,городской округ Магас,Магас,ru:Магас,44.8048191,43.1666497,34395341
Горячий Ключ,Goryachiy Klyuch,RU,Краснодарский край,,Горячий Ключ,ru:Горячий Ключ,39.1363613,44.6342653,36722707
Туапсе,Tuapse,RU,Краснодарский край,Туапсинский район,Туапсе,ru:Туапсе,39.0718875,44.0984747,36722824
Стародуб,,RU,Брянская область,Стародубский муниципальный округ,Стародуб,ru:Стародуб,32.760098,52.584446,60078302
Унеча,Unecha,RU,Брянская область,Унечский район,Унеча,ru:Унеча,32.6867,52.8451,60078390
Рославль,Roslavl,RU,Смоленская область,Рославльский район,Рославль,ru:Рославль,32.8606696,53.9483965,60078445
Тосно,Tosno,RU,Ленинградская область,Тосненский район,Тосно,ru:Тосно,30.8773645,59.5412777,60079145
Зеленоградск,Zelenogradsk,RU,Калининградская область,Зеленоградский муниципальный округ,Зеленоградск,ru:Зеленоградск,20.4750188,54.9600365,60237699
Светлый,,RU,Калининградская область,,Светлый,ru:Светлый (Калининградская область),20.131153,54.673355,60237889
Мамоново,Mamonovo,RU,Калининградская область,Мамоновский городской округ,Мамоново,ru:Мамоново,19.9414303,54.4636264,60238036
Багратионовск,,RU,Калининградская область,,Багратионовск,ru:Багратионовск,20.6405124,54.3868191,60238153
Советск,Sovetsk,RU,Калининградская область,,Советск,ru:Советск (Калининградская область),21.8882673,55.0809688,60238387
Неман,,RU,Калининградская область,,Неман,ru:Неман (город),22.0293578,55.0359656,60238408
Полесск,Polessk,RU,Калининградская область,,Полесск,ru:Полесск,21.1098591,54.8627556,60238585
Торжок,Torzhok,RU,Тверская область,,Торжок,ru:Торжок,34.973373,57.040794,60405981
Зеленогорск,Zelenogorsk,RU,Санкт-Петербург,,Зеленогорск,ru:Зеленогорск (Санкт-Петербург),29.7071585,60.1970751,60477767
Любань,Lyuban,RU,Ленинградская область,Тосненский район,Любань,ru:Любань (Ленинградская область),31.244207,59.346325,60696063
Мглин,Mglin,RU,Брянская область,Мглинский район,Мглин,ru:Мглин,32.8500077,53.0591919,60699035
Порхов,Porkhov,RU,Псковская область,Порховский район,Порхов,ru:Порхов,29.551878,57.765289,76752092
Клин,Klin,RU,Московская область,городской округ Клин,Клин,ru:Клин (город),36.7351318,56.3355601,82452220
Приозерск,Priozersk,RU,Ленинградская область,Приозерский район,Приозерск,ru:Приозерск,30.1248482,61.0385285,82545393
Чайковский,Chaikovsky,,,,Чайковский,ru:Чайковский (город),54.1500704,56.7787468,82739207
Петергоф,Peterhof,RU,Санкт-Петербург,,Петергоф,ru:Петергоф,29.912041,59.881847,83087798
Рощино,Roshchino,RU,Ленинградская область,Выборгский район,Рощино,ru:Рощино (Ленинградская область),29.6051421,60.256651,83308922
Сосново,Sosnovo,RU,Ленинградская область,Приозерский район,Сосново,ru:Сосново (Приозерский район),30.2540609,60.5570987,83312335
Юхнов,,RU,Калужская область,Юхновский район,Юхнов,ru:Юхнов,35.2264393,54.7415766,89982639
Медынь,Medyn,RU,Калужская область,Медынский район,Медынь,ru:Медынь,35.857,54.969,90045540
Красный Кут,Krasny Kut,RU,Саратовская область,Краснокутский район,Красный Кут,ru:Красный Кут,46.972462,50.9459056,90441479
Урюпинск,Uryupinsk,RU,Волгоградская область,городской округ Урюпинск,Урюпинск,ru:Урюпинск,42.0051866,50.7970972,90471328
Балабаново,Balabanovo,RU,Калужская область,Боровский район,Балабаново,ru:Балабаново,36.6575564,55.1783579,90496729
Углич,Uglich,RU,Ярославская область,Угличский район,Углич,ru:Углич,38.316689,57.526783,92383389
Переславль-Залесский,Pereslavl-Zalessky,,,,Переславль-Залесский,ru:Переславль-Залесский,38.8462714,56.7367178,92441557
Мышкин,Myshkin,RU,Ярославская область,Мышкинский район,Мышкин,ru:Мышкин,38.451595,57.784725,92774502
Дмитров,Dmitrov,RU,Московская область,Дмитровский городской округ,Дмитров,ru:Дмитров,37.5200723,56.3450695,93384125
Талдом,Taldom,RU,Московская область,Талдомский городской округ,Талдом,ru:Талдом,37.528016,56.730941,93384127
Александров,Alexandrov,RU,Владимирская область,Александровский район,Александров,ru:Александров (город),38.7111103,56.3962287,93387393
Кольчугино,,RU,Владимирская область,Кольчугинский район,Кольчугино,ru:Кольчугино,39.3759931,56.2939784,93390174
Баксан,Baksan,,,,Баксан,ru:Баксан (город),43.5344319,43.6820626,93701882
Сычёвка,,RU,Смоленская область,Сычёвский район,Сычёвка,ru:Сычёвка,34.2770455,55.8269908,94075151
Селижарово,Selizharovo,RU,Тверская область,Селижаровский муниципальный округ,Селижарово,ru:Селижарово,33.452286,56.855633,94091844
Осташков,Ostashkov,RU,Тверская область,Осташковский городской округ,Осташков,ru:Осташков,33.1013213,57.1557583,94102909
Трубчевск,Trubchevsk,RU,Брянская область,Трубчевский район,Трубчевск,ru:Трубчевск,33.767467,52.5835,97811692
Погар,Pogar,RU,Брянская область,Погарский район,Погар,ru:Погар,33.263706,52.554283,97816108
Сертолово,Sertolovo,RU,Ленинградская область,Всеволожский район,Сертолово,ru:Сертолово,30.207806,60.143707,125891414
Новозыбков,Novozybkov,RU,Брянская область,,Новозыбков,ru:Новозыбков,31.93367,52.537086,130201149
Злынка,Zlynka,RU,Брянская область,Злынковский район,Злынка,ru:Злынка,31.7371106,52.4274018,130201537
Сураж,Surazh,RU,Брянская область,Суражский район,Сураж,ru:Сураж,32.3931633,53.0131501,140560218
Севск,,RU,Брянская область,Севский район,Севск,ru:Севск,34.494572,52.156021,140562335
Навля,,RU,Брянская область,Навлинский район,Навля,ru:Навля (Брянская область),34.4993843,52.8271323,140563839
Волоколамск,Volokolamsk,RU,Московская область,Волоколамский городской округ,Волоколамск,ru:Волоколамск,35.9583358,56.0360129,140594314
Калязин,Kalyazin,RU,Тверская область,Калязинский район,Калязин,ru:Калязин,37.8404883,57.2400206,148899605
Тутаев,Tutaev,RU,Ярославская область,Тутаевский район,Тутаев,ru:Тутаев,39.527214,57.875385,148899607
Кашин,Kashin,RU,Тверская область,Кашинский городской округ,Кашин,ru:Кашин,37.611454,57.361755,148901126
Кимры,Kimry,RU,Тверская область,,Кимры,ru:Кимры,37.3556968,56.8734395,148912020
Елабуга,Yelabuga,RU,Татарстан,Елабужский район,Елабуга,ru:Елабуга,52.0539938,55.7577131,153568874
Павловский Посад,Pavlovsky Posad,RU,Московская область,городской округ Павловский Посад,Павловский Посад,ru:Павловский Посад,38.6507838,55.7813357,156159426
Демидов,,RU,Смоленская область,Демидовский район,Демидов,ru:Демидов (город),31.5178326,55.2643778,173833660
Велиж,,RU,Смоленская область,Велижский район,Велиж,ru:Велиж,31.1949976,55.6045223,173835805
Локня,,RU,Псковская область,Локнянский район,Локня,ru:Локня (Псковская область),30.144482,56.824783,173846663
Бежаницы,Bezhanitsy,RU,Псковская область,Бежаницкий район,Бежаницы,ru:Бежаницы,29.8845309,56.9738846,173863860
Ишим,Ishim,RU,Тюменская область,городской округ Ишим,Ишим,ru:Ишим,69.457152,56.1092126,174842795
Лабытнанги,Labytnangi,RU,Ямало-Ненецкий автономный округ,,Лабытнанги,ru:Лабытнанги,66.3810869,66.6615094,176960743
Нижняя Тавда,,RU,Тюменская область,Нижнетавдинский район,Нижняя Тавда,ru:Нижняя Тавда,66.172325,57.665195,178108820
Тайга,Taiga,RU,Кемеровская область,,Тайга,ru:Тайга (город),85.631325,56.065071,178926370
Светлый,Svetly,RU,Томская область,,Светлый,ru:Светлый (Томск),85.103523,56.578079,178927700
Асино,Asino,RU,Томская область,Асиновский район,Асино,ru:Асино,86.14167,56.999187,178972986
Зональная Станция,Zonalnaya Stantsiya,RU,Томская область,Томский район,Зональная Станция,ru:Зональная Станция,85.022102,56.426922,179108306
Первомайское,Pervomayskoye,RU,Томская область,Первомайский район,Первомайское,ru:Первомайское (Томская область),86.226082,57.070614,179165864
Кривошеино,Krivosheino,RU,Томская область,Кривошеинский район,Кривошеино,ru:Кривошеино (Томская область),83.930153,57.343742,186985543
Молчаново,Molchanovo,RU,Томская область,Молчановский район,Молчаново,ru:Молчаново (Томская область),83.7605958,57.5812043,186987910
Колпашево,Kolpashevo,RU,Томская область,Колпашевский район,Колпашево,ru:Колпашево,82.903557,58.313667,187010245
Мельниково,Melnikovo,RU,Томская область,Шегарский район,Мельниково,ru:Мельниково (Томская область),84.090408,56.554417,187013636
Горно-Алтайск,Gorno-Altaysk,RU,Республика Алтай,,Горно-Алтайск,ru:Горно-Алтайск,85.963653,51.957775,191636706
Агинское,Aginskoye,RU,Забайкальский край,городской округ Агинское,Агинское,ru:Агинское,114.5408006,51.1057609,191732832
Анадырь,Anadyr,RU,Чукотский автономный округ,городской округ Анадырь,Анадырь,ru:Анадырь,177.5060925,64.7316875,191736988
Копейск,Kopeysk,RU,Челябинская область,,Копейск,ru:Копейск,61.6216332,55.1131951,191870333
Октябрьский,Oktjabrski,RU,Башкортостан,,Октябрьский,ru:Октябрьский (город),53.4660062,54.4809722,191901380
Новотроицк,Novotroitsk,RU,Оренбургская область,городской округ Новотроицк,Новотроицк,ru:Новотроицк,58.298527,51.196369,191907831
Киселёвск,Kiselyovsk,RU,Кемеровская область,Киселёвский городской округ,Киселёвск,ru:Киселёвск,86.6354771,54.0049872,191908717
Междуреченск,Mezhdurechensk,RU,Кемеровская область,,Междуреченск,ru:Междуреченск,88.0703443,53.6863763,191909355
Ухта,Ukhta,RU,,городской округ Ухта,Ухта,ru:Ухта,53.6842376,63.5623797,191909841
Канск,Kansk,RU,Красноярский край,,Канск,ru:Канск,95.706787,56.205997,191912193
Бакчар,Bakchar,RU,Томская область,Бакчарский район,Бакчар,ru:Бакчар (село),82.066872,57.020538,203914619
Зырянское,Zyryanskoye,RU,Томская область,Зырянский район,Зырянское,ru:Зырянское (Томская область),86.621178,56.834206,203999445
Слюдянка,Slyudyanka,,Иркутская область,,Слюдянка,ru:Слюдянка (город),103.719292,51.656769,204764214
Дудинка,Dudinka,RU,Красноярский край,Таймырский Долгано-Ненецкий район,Дудинка,ru:Дудинка,86.175072,69.406067,204815902
Тура,Tura,RU,Красноярский край,Эвенкийский район,Тура,ru:Тура (Красноярский край),100.2169635,64.2741955,204816649
Юрга,Yurga,,Кемеровская область,,Юрга,ru:Юрга,84.934799,55.7136,205159518
Топки,Topki,RU,Кемеровская область,,Топки,ru:Топки,85.6228741,55.2751962,205177205
Ленинск-Кузнецкий,Leninsk-Kuznetsky,RU,Кемеровская область,,Ленинск-Кузнецкий,ru:Ленинск-Кузнецкий,86.166115,54.665443,205216827
Белый Яр,Bely Yar,,Томская область,,Белый Яр,ru:Белый Яр (Верхнекетский район),85.0389307,58.4475598,205375412
Яя,Yaya,RU,Кемеровская область,,Яя,ru:Яя (Кемеровская область),86.4485361,56.2020084,205430993
Мариинск,Mariinsk,RU,Кемеровская область,,Мариинск,ru:Мариинск,87.751259,56.206299,205437775
Сосновый Бор,Sosnoviy Bor,RU,Ленинградская область,Сосновоборский городской округ,Сосновый Бор,ru:Сосновый Бор (город),29.0765628,59.8968655,206092285
Яшкино,Yashkino,,Кемеровская область,,Яшкино,ru:Яшкино,85.4380316,55.8717888,206111919
Тавда,Tavda,RU,Свердловская область,Тавдинский городской округ,Тавда,ru:Тавда (город),65.2719986,58.0413743,206131650
Полысаево,Polysayevo,RU,Кемеровская область,,Полысаево,ru:Полысаево,86.276024,54.603142,206204308
Парабель,Parabel,RU,Томская область,Парабельский район,Парабель,ru:Парабель (село),81.5018413,58.7139667,206803392
Каргасок,Kargasok,RU,Томская область,Каргасокский район,Каргасок,ru:Каргасок,80.8708719,59.0598053,206809742
Белая Холуница,,RU,Кировская область,Белохолуницкий район,Белая Холуница,ru:Белая Холуница,50.8410741,58.8406817,206864037
Стрежевой,Strezhevoy,RU,Томская область,,Стрежевой,ru:Стрежевой,77.600807,60.732758,210111403
Бердюжье,,RU,Тюменская область,Бердюжский район,Бердюжье,ru:Бердюжье (Тюменская область),68.308907,55.805538,210122762
Голышманово,,RU,Тюменская область,Голышмановский городской округ,Голышманово,ru:Голышманово,68.375069,56.395542,210133788
Кожевниково,Kozhevnikovo,RU,Томская область,Кожевниковский район,Кожевниково,ru:Кожевниково (Томская область),83.9750781,56.2600069,210221063
Чик,Chik,RU,Новосибирская область,Коченёвский район,Чик,ru:Чик (рабочий посёлок),82.4427018,54.9944056,210251157
Иланский,Ilansky,RU,Красноярский край,,Иланский,ru:Иланский,96.06694,56.23806,210305929
Бирюсинск,Biryusinsk,RU,Иркутская область,Тайшетский район,Бирюсинск,ru:Бирюсинск,97.824509,55.964275,210321646
Тайшет,Tayshet,RU,Иркутская область,,Тайшет,ru:Тайшет,98.0196711,55.9385304,210323639
Александровское,Aleksandrovskoye,,Томская область,,Александровское,ru:Александровское (Александровский район),77.865845,60.431446,210375564
Кедровый,Kedrovy,RU,Томская область,,Кедровый,ru:Кедровый (Томская область),79.570801,57.56192,210526082
Подгорное,Podgornoye,RU,Томская область,Чаинский район,Подгорное,ru:Подгорное (Томская область),82.6441106,57.7915323,210737785
Бугры,Bugry,RU,Ленинградская область,Всеволожский район,Бугры,ru:Бугры (Всеволожский район),30.394814,60.068558,211503865
Кузьмоловский,Kuzmolovskiy,RU,Ленинградская область,Всеволожский район,Кузьмоловский,ru:Кузьмоловский,30.4925228,60.1097594,211504478
Осинники,Osinniki,,Кемеровская область,,Осинники,ru:Осинники,87.332893,53.606995,216890905
Кингисепп,Kingisepp,RU,Ленинградская область,Кингисеппский район,Кингисепп,ru:Кингисепп,28.5981591,59.3743982,217317194
Ивангород,Ivangorod,RU,Ленинградская область,Кингисеппский район,Ивангород,ru:Ивангород,28.2192542,59.3744139,217323851
Калтан,Kaltan,,Кемеровская область,,Калтан,ru:Калтан,87.286179,53.519459,221109841
Малиновка,Malinovka,,,,Малиновка,ru:Малиновка (Калтанский городской округ),87.284531,53.40292,221123415
Таштагол,Tashtagol,RU,Кемеровская область,Таштагольский район,Таштагол,ru:Таштагол,87.8484499,52.7594694,221173014
Шерегеш,Sheregesh,RU,Кемеровская область,Таштагольский район,Шерегеш,ru:Шерегеш,87.9767624,52.9259826,221181091
Мыски,Myski,,Кемеровская область,,Мыски,ru:Мыски,87.800316,53.71386,221214205
Сестрорецк,Sestroretsk,RU,Санкт-Петербург,,Сестрорецк,ru:Сестрорецк,29.9597606,60.0981084,235967510
Агалатово,Agalatovo,RU,Ленинградская область,Всеволожский район,Агалатово,ru:Агалатово,30.2931287,60.2186937,243067858
Парголово,Pargolovo,RU,Санкт-Петербург,,Парголово,ru:Парголово,30.2795673,60.0837018,243067926
Всеволожск,Vsevolozhsk,RU,Ленинградская область,Всеволожский район,Всеволожск,ru:Всеволожск,30.646042,60.024006,243068681
Нижнеудинск,Nizhneudinsk,RU,Иркутская область,,Нижнеудинск,ru:Нижнеудинск,99.0302862,54.9084881,243083247
Тулун,Tulun,RU,Иркутская область,,Тулун,ru:Тулун,100.579216,54.562096,243329007
Заиграево,Zaigrayevo,RU,Бурятия,Заиграевский район,Заиграево,ru:Заиграево,108.270615,51.834293,243347526
Петровск-Забайкальский,Petrovsk-Zabaykalsky,RU,Забайкальский край,,Петровск-Забайкальский,ru:Петровск-Забайкальский,108.854485,51.275215,243349531
Хилок,Khilok,RU,Забайкальский край,Хилокский район,Хилок,ru:Хилок (город),110.4579749,51.3628436,243355185
Никольское,Nikolskoye,RU,Ленинградская область,Тосненский район,Никольское,ru:Никольское (город),30.7861084,59.7034799,243367757
Токсово,Toksovo,RU,Ленинградская область,Всеволожский район,Токсово,ru:Токсово,30.5255831,60.1588778,243480022
Карымское,Karymskoye,RU,Забайкальский край,Карымский район,Карымское,ru:Карымское (посёлок городского типа),114.34063,51.623402,243527503
Шилка,Shilka,RU,Забайкальский край,Шилкинский район,Шилка,ru:Шилка (город),116.025894,51.851639,243634984
Холбон,Kholbon,RU,Забайкальский край,Шилкинский район,Холбон,ru:Холбон,116.251968,51.900475,243635532
Чернышевск,Chernyshevsk,RU,Забайкальский край,Чернышевский район,Чернышевск,ru:Чернышевск,117.01371,52.514069,243695003
Шадринск,Shadrinsk,RU,Курганская область,городской округ Шадринск,Шадринск,ru:Шадринск,63.629482,56.087364,243836016
Боровский,,RU,Тюменская область,Тюменский район,Боровский,ru:Боровский (Тюменская область),65.727104,57.041527,243991807
Винзили,,RU,Тюменская область,Тюменский район,Винзили,ru:Винзили,65.780586,56.964119,243991809
Богандинский,,RU,Тюменская область,Тюменский район,Богандинский,ru:Богандинский,65.894623,56.89407,243991812
Ялуторовск,Yalutorovsk,RU,Тюменская область,городской округ Ялуторовск,Ялуторовск,ru:Ялуторовск,66.312752,56.654934,243991814
Заводоуковск,Zavodoukovsk,RU,Тюменская область,Заводоуковский городской округ,Заводоуковск,ru:Заводоуковск,66.539261,56.509293,243991822
Армизонское,,RU,Тюменская область,Армизонский район,Армизонское,ru:Армизонское,67.685402,55.945129,243993517
Казанское,,RU,Тюменская область,Казанский район,Казанское,ru:Казанское (Казанский район),69.2419265,55.6434378,243993518
Абатское,Abatskiy,RU,Тюменская область,Абатский район,Абатское,ru:Абатское,70.453026,56.289024,243993519
Называевск,Nazyvayevsk,RU,Омская область,Называевский район,Называевск,ru:Называевск,71.349365,55.564896,243993520
Омутинское,,RU,Тюменская область,Омутинский район,Омутинское,ru:Омутинское,67.66394,56.476646,243995008
Пикалёво,Pikalyovo,RU,Ленинградская область,Бокситогорский район,Пикалёво,ru:Пикалёво,34.1773573,59.5129787,244064712
Сретенск,Sretensk,RU,Забайкальский край,Сретенский район,Сретенск,ru:Сретенск,117.695541,52.243191,244078631
Левашово,Levashovo,RU,Санкт-Петербург,,Левашово,ru:Левашово (Санкт-Петербург),30.2040627,60.1024225,244213400
Кронштадт,Kronstadt,RU,Санкт-Петербург,,Кронштадт,ru:Кронштадт,29.774652,59.990845,244217868
Сясьстрой,Syasstroy,RU,Ленинградская область,Волховский район,Сясьстрой,ru:Сясьстрой,32.5637502,60.1397073,244220844
Кумертау,Kumertau,RU,Башкортостан,,Кумертау,ru:Кумертау,55.796482,52.760975,244396312
Тегульдет,Teguldet,RU,Томская область,Тегульдетский район,Тегульдет,ru:Тегульдет,88.167168,57.306404,244529460
Песковка,Peskovka,RU,Кировская область,Омутнинский район,Песковка,ru:Песковка (Кировская область),52.3552684,59.0440083,245917485
Кадуй,Kaduy,RU,Вологодская область,Кадуйский район,Кадуй,ru:Кадуй (рабочий посёлок),37.148609,59.199219,246280229
Чагода,Chagoda,RU,Вологодская область,,Чагода,ru:Чагода,35.329369,59.16383,246559783
Устюжна,Ustyuzhna,RU,Вологодская область,,Устюжна,ru:Устюжна,36.4296982,58.8428204,246566425
Боготол,Bogotol,RU,Красноярский край,,Боготол,ru:Боготол,89.531639,56.211464,246669195
Янино-1,Yanino-1,RU,Ленинградская область,Всеволожский район,Янино-1,ru:Янино-1,30.561453,59.947418,246676969
Кировск,Kirovsk,RU,Ленинградская область,Кировский район,Кировск,ru:Кировск (Ленинградская область),30.9855331,59.8813954,246678899
Остров,Ostrov,RU,Псковская область,Островский район,Остров,ru:Остров (город),28.357817,57.344631,246830274
Мелеуз,Meleuz,RU,Башкортостан,Мелеузовский район,Мелеуз,ru:Мелеуз,55.928612,52.96328,247077588
Суоярви,Suoyarvi,RU,,Суоярвский район,Суоярви,ru:Суоярви,32.345856,62.0820094,247216329
Верхняя Пышма,Verkhnyaya Pyshma,RU,Свердловская область,городской округ Верхняя Пышма,Верхняя Пышма,ru:Верхняя Пышма,60.5738926,56.9724682,247704625
Лебяжье,Lebyazhye,RU,Ленинградская область,Ломоносовский район,Лебяжье,ru:Лебяжье (Ломоносовский район),29.4166768,59.9615811,248268280
Лодейное Поле,Lodeynoye Pole,RU,Ленинградская область,Лодейнопольский район,Лодейное Поле,ru:Лодейное Поле,33.5457731,60.7339323,248517049
Крестцы,,,Новгородская область,Крестецкий район,Крестцы,ru:Крестцы,32.522858,58.247665,248560493
Валдай,Valday,,Новгородская область,Валдайский район,Валдай,ru:Валдай,33.2537994,57.9791414,248561620
Бологое,Bologoe,RU,Тверская область,Бологовский район,Бологое,ru:Бологое,34.049603,57.885204,248561802
Кириллов,Kirillov,RU,Вологодская область,Кирилловский район,Кириллов,ru:Кириллов (город),38.3758696,59.8590575,248877229
Белозерск,Belozersk,RU,Вологодская область,Белозерский район,Белозерск,ru:Белозерск,37.7842189,60.03199,249629979
Мурино,Murino,RU,Ленинградская область,Всеволожский район,Мурино,ru:Мурино (Ленинградская область),30.4458901,60.046193,249759120
Кузнечное,Kuznechnoye,RU,Ленинградская область,Приозерский район,Кузнечное,ru:Кузнечное (посёлок),29.8730838,61.1211675,249841082
Пестово,Pestovo,RU,Новгородская область,Пестовский район,Пестово,ru:Пестово,35.8230767,58.5991505,250133468
Благовещенск,Blagoveshchensk,RU,Башкортостан,Благовещенский район,Благовещенск,ru:Благовещенск (Башкортостан),55.981876,55.031143,250622613
Бирск,Birsk,RU,Башкортостан,Бирский район,Бирск,ru:Бирск,55.5407179,55.4206774,251069363
Туймазы,Tujmazy,RU,Башкортостан,Туймазинский район,Туймазы,ru:Туймазы,53.6974004,54.606537,251069799
Агидель,Agidel,RU,Башкортостан,городской округ Агидель,Агидель,ru:Агидель (город),53.9374202,55.899276,251071107
Дюртюли,Dyurtyuli,RU,Башкортостан,Дюртюлинский район,Дюртюли,ru:Дюртюли,54.863895,55.490616,251072970
Кушнаренково,Kushnarenkovo,RU,Башкортостан,Кушнаренковский район,Кушнаренково,ru:Кушнаренково,55.342201,55.107124,251073091
Новодвинск,Novodvinsk,RU,Архангельская область,городской округ Новодвинск,Новодвинск,ru:Новодвинск,40.793793,64.419212,251471563
Янаул,Yanaul,RU,Башкортостан,Янаульский район,Янаул,ru:Янаул,54.931702,56.27076,251524158
Аша,Asha,RU,Челябинская область,Ашинский район,Аша,ru:Аша,57.2780531,54.9908896,251526742
Усть-Катав,Ust'-Katav,RU,Челябинская область,Усть-Катавский городской округ,Усть-Катав,ru:Усть-Катав,58.1743686,54.9307169,251531240
Юрюзань,Yuryuzan',RU,Челябинская область,Катав-Ивановский район,Юрюзань,ru:Юрюзань (город),58.427807,54.870075,251532339
Шексна,Sheksna,RU,Вологодская область,Шекснинский район,Шексна,ru:Шексна (Шекснинский район),38.5009851,59.2069457,251710853
Красное Село,Krasnoye Selo,RU,Санкт-Петербург,,Красное Село,ru:Красное Село,30.0862468,59.7337993,252425945
Ликино-Дулёво,Likino-Dulyovo,RU,Московская область,,Ликино-Дулёво,ru:Ликино-Дулёво,38.9569091,55.7043101,252546931
Краснообск,Krasnoobsk,RU,Новосибирская область,Новосибирский район,Краснообск,ru:Краснообск,82.9905861,54.9211081,252975800
Егорьевск,Yegoryevsk,RU,Московская область,городской округ Егорьевск,Егорьевск,ru:Егорьевск,39.0356223,55.3829765,253016504
Кармаскалы,Karmaskaly,RU,Башкортостан,Кармаскалинский район,Кармаскалы,ru:Кармаскалы (Кармаскалинский район),56.168819,54.367451,253241997
Архангельское,,RU,Башкортостан,Архангельский район,Архангельское,ru:Архангельское (Архангельский район),56.784122,54.405724,253243268
Межгорье,Mezhgorye,RU,Башкортостан,,Межгорье,ru:Межгорье (Башкортостан),57.9736815,54.2410247,253258948
Чишмы,,RU,Башкортостан,Чишминский район,Чишмы,ru:Чишмы,55.385605,54.58968,253266942
Голицыно,Golitsyno,RU,Московская область,Одинцовский городской округ,Голицыно,ru:Голицыно,36.9887625,55.6149602,253331857
Можайск,Mozhaisk,RU,Московская область,Можайский городской округ,Можайск,ru:Можайск,36.0213092,55.506478,253338946
Тучково,Tuchkovo,RU,Московская область,Рузский городской округ,Тучково,ru:Тучково,36.4662973,55.6014428,253338948
Кубинка,Kubinka,RU,Московская область,Одинцовский городской округ,Кубинка,ru:Кубинка,36.6952802,55.5755486,253338949
Звенигород,Zvenigorod,RU,Московская область,Одинцовский городской округ,Звенигород,ru:Звенигород,36.8585382,55.7293613,253338950
Большие Вязёмы,Bolshiye Vyazyomy,RU,Московская область,Одинцовский городской округ,Большие Вязёмы,ru:Большие Вязёмы,37.0110986,55.6321572,253338954
Боровск,Borovsk,RU,Калужская область,Боровский район,Боровск,ru:Боровск,36.4813883,55.2067186,253397948
Нахабино,Nakhabino,RU,Московская область,городской округ Красногорск,Нахабино,ru:Нахабино,37.1770987,55.8394789,253438581
Истра,Istra,RU,Московская область,городской округ Истра,Истра,ru:Истра (город),36.8595482,55.9145993,253438739
Бронницы,Bronnitsy,RU,Московская область,городской округ Бронницы,Бронницы,ru:Бронницы,38.2591,55.422,253732932
Ахтубинск,Akhtubinsk,RU,Астраханская область,Ахтубинский район,Ахтубинск,ru:Ахтубинск,46.1744879,48.2877616,253737355
Тимашёвск,Timashevsk,RU,Краснодарский край,Тимашёвский район,Тимашёвск,ru:Тимашёвск,38.9504299,45.6123531,253814474
Алушта,Alushta,,,,Алушта,uk:Алушта,34.4095393,44.677112,254554018
Усть-Илимск,Ust-Ilimsk,RU,Иркутская область,,Усть-Илимск,ru:Усть-Илимск,102.734192,57.959473,254587738
Нюксеница,,RU,Вологодская область,Нюксенский район,Нюксеница,ru:Нюксеница,44.254551,60.419796,254855683
Тотьма,Totma,RU,Вологодская область,,Тотьма,ru:Тотьма,42.7587335,59.9736254,254862887
Хотьково,Khotkovo,RU,Московская область,Сергиево-Посадский городской округ,Хотьково,ru:Хотьково,37.9908107,56.2541234,255184479
Ладушкин,Ladushkin,RU,Калининградская область,Ладушкинский городской округ,Ладушкин,ru:Ладушкин,20.1734409,54.5712666,255910496
Можга,Mozhga,RU,Удмуртия,,Можга,ru:Можга,52.2138722,56.4426833,255954981
Марфино,Marfino,RU,Московская область,городской округ Мытищи,Марфино,ru:Марфино (Мытищинский район),37.561354,56.0718871,256195802
Шаховская,Shakhovskaya,RU,Московская область,,Шаховская,ru:Шаховская (рабочий посёлок),35.5102036,56.031464,256361815
Щербинка,Shcherbinka,RU,Москва,,Щербинка,ru:Щербинка,37.5673544,55.5069136,256361817
Видное,Vidnoye,RU,Московская область,Ленинский городской округ,Видное,ru:Видное,37.7087142,55.5571496,256361842
Монино,Monino,RU,Московская область,городской округ Щёлково,Монино,ru:Монино (Московская область),38.1967476,55.841371,256361844
Старая Купавна,Staraya Kupavna,RU,Московская область,Богородский городской округ,Старая Купавна,ru:Старая Купавна,38.1774172,55.8070323,256361845
Реутов,Reutov,RU,Московская область,городской округ Реутов,Реутов,ru:Реутов,37.856555,55.7622453,256361846
Электрогорск,Elektrogorsk,RU,Московская область,городской округ Электрогорск,Электрогорск,ru:Электрогорск,38.7858721,55.8792983,256361847
Дрезна,Drezna,RU,Московская область,,Дрезна,ru:Дрезна,38.8491341,55.7448093,256361848
Шатура,Shatura,RU,Московская область,городской округ Шатура,Шатура,ru:Шатура,39.5437584,55.578403,256361850
Петушки,Petushki,RU,Владимирская область,Петушинский район,Петушки,ru:Петушки (город),39.4599489,55.9310313,256361853
Покров,Pokrov,RU,Владимирская область,Петушинский район,Покров,ru:Покров (город; Россия),39.1772776,55.919601,256361854
Фряново,Fryanovo,RU,Московская область,городской округ Щёлково,Фряново,ru:Фряново,38.4454114,56.1345496,256361855
Черноголовка,Chernogolovka,RU,Московская область,городской округ Черноголовка,Черноголовка,ru:Черноголовка,38.3835224,56.0061165,256361856
Софрино,Sofrino,,Московская область,,Софрино,ru:Софрино,37.9305867,56.137427,256361857
Красноармейск,Krasnoarmeysk,RU,Московская область,,Красноармейск,ru:Красноармейск (Московская область),38.1457655,56.1210895,256361858
Запрудня,Zaprudnya,RU,Московская область,Талдомский городской округ,Запрудня,ru:Запрудня,37.4255388,56.56265,256361859
Вербилки,,RU,Московская область,Талдомский городской округ,Вербилки,ru:Вербилки,37.6003039,56.5268495,256361860
Яхрома,Yakhroma,RU,Московская область,Дмитровский городской округ,Яхрома,ru:Яхрома,37.4838441,56.289936,256361864
Руза,Ruza,RU,Московская область,Рузский городской округ,Руза,ru:Руза,36.1946992,55.6998907,256361865
Верея,Vereya,RU,Московская область,Наро-Фоминский городской округ,Верея,ru:Верея,36.185145,55.343238,256361867
Ступино,Stupino,RU,Московская область,городской округ Ступино,Ступино,ru:Ступино,38.0772589,54.886598,256361869
Кашира,Kashira,RU,Московская область,городской округ Кашира,Кашира,ru:Кашира,38.1505119,54.837449,256361870
Пущино,Pushchino,RU,Московская область,,Пущино,ru:Пущино,37.6139685,54.8347213,256361871
Ясногорск,Yasnogorsk,RU,Тульская область,Ясногорский район,Ясногорск,ru:Ясногорск (Тульская область),37.693329,54.4792708,256361872
Озёры,Ozyory,RU,Московская область,,Озёры,ru:Озёры,38.5598853,54.854209,256361873
Зарайск,Zaraysk,RU,Московская область,городской округ Зарайск,Зарайск,ru:Зарайск,38.8818137,54.7585694,256361874
Белоомут,,RU,Московская область,городской округ Луховицы,Белоомут,ru:Белоомут,39.339613,54.944246,256361878
Краснозаводск,,RU,Московская область,Сергиево-Посадский городской округ,Краснозаводск,ru:Краснозаводск,38.244339,56.440507,256361879
Лотошино,,RU,Московская область,городской округ Лотошино,Лотошино,ru:Лотошино,35.6399029,56.228891,256361882
Деденёво,,RU,Московская область,Дмитровский городской округ,Деденёво,ru:Деденево,37.520368,56.242253,256361885
Пересвет,Peresvet,RU,Московская область,Сергиево-Посадский городской округ,Пересвет,ru:Пересвет (город),38.1736347,56.4158101,256361886
Электроугли,Elektrougli,RU,Московская область,Богородский городской округ,Электроугли,ru:Электроугли,38.2228192,55.7184467,256361887
Лосино-Петровский,Losino-Petrovsky,RU,Московская область,городской округ Лосино-Петровский,Лосино-Петровский,ru:Лосино-Петровский,38.2032701,55.8705593,256361889
Ивантеевка,Ivanteyevka,,,,Ивантеевка,ru:Ивантеевка,37.9200739,55.9714098,256361890
Красногорский,,RU,Марий Эл,Звениговский район,Красногорский,ru:Красногорский (Марий Эл),48.3206246,56.1541534,256443047
Джанкой,Dzhankoy,,,,Джанкой,uk:Джанкой,34.3899131,45.7093755,256579283
Судиславль,,RU,Костромская область,Судиславский район,Судиславль,ru:Судиславль,41.712421,57.881283,256825509
Островское,,RU,Костромская область,Островский район,Островское,ru:Островское (посёлок; Костромская область),42.240532,57.805042,256825510
Кадый,Kady,RU,Костромская область,Кадыйский район,Кадый,ru:Кадый,43.189411,57.784485,256827430
Макарьев,Makaryev,RU,Костромская область,Макарьевский район,Макарьев,ru:Макарьев,43.80724,57.880402,256827431
Шарья,Sharya,RU,Костромская область,,Шарья,ru:Шарья,45.519306,58.37257,256827434
Ветлужский,,RU,Костромская область,,Ветлужский,ru:Ветлужский (Костромская область),45.471382,58.394447,256827435
Поназырево,,RU,Костромская область,Поназыревский район,Поназырево,ru:Поназырево,46.317429,58.358154,256827438
Котельнич,Kotelnich,RU,Кировская область,городской округ Котельнич,Котельнич,ru:Котельнич,48.3372596,58.3053524,256827443
Мирный,,RU,Кировская область,Оричевский район,Мирный,ru:Мирный (Оричевский район),48.640681,58.303943,256827444
Орлов,Orlov,RU,Кировская область,Орловский район,Орлов,ru:Орлов (город),48.8850765,58.5363174,256827445
Мурыгино,,RU,Кировская область,Юрьянский район,Мурыгино,ru:Мурыгино (Кировская область),49.4610823,58.7354596,256827447
Омутнинск,Omutninsk,RU,Кировская область,Омутнинский район,Омутнинск,ru:Омутнинск,52.17625,58.668304,256827452
Советский,Sovetskii,RU,Ленинградская область,Выборгский район,Советский,ru:Советский (Ленинградская область),28.6697439,60.532538,257906827
Дзержинский,Dzerzhinsky,RU,Московская область,городской округ Дзержинский,Дзержинский,ru:Дзержинский (город),37.8496653,55.6309186,258828718
Лыткарино,Lytkarino,RU,Московская область,городской округ Лыткарино,Лыткарино,ru:Лыткарино,37.9080217,55.5822477,258834478
Белёв,Belyov,RU,Тульская область,Белёвский район,Белёв,ru:Белёв,36.137001,53.811798,259862730
Козельск,Kozelsk,RU,Калужская область,Козельский район,Козельск,ru:Козельск,35.780102,54.037102,259862820
Яр,Yar,RU,,,Яр,ru:Яр (посёлок; Удмуртия),52.1079326,58.2442424,260964928
Пионерский,Pionersky,RU,Калининградская область,,Пионерский,ru:Пионерский (город),20.22591,54.948227,261008814
Кондрово,Kondrovo,RU,Калужская область,Дзержинский район,Кондрово,ru:Кондрово,35.9301213,54.8069199,261667935
Вязьма,,RU,Смоленская область,Вяземский район,Вязьма,ru:Вязьма,34.2995187,55.2103563,262522404
,,RU,Костромская область,Костромской район,Никольское,ru:Никольское (посёлок; Костромской район),41.104908,57.806942,262625960
Оричи,Orichi,RU,Кировская область,Оричевский район,Оричи,ru:Оричи,49.0564965,58.4013081,262830281
Внуково,Vnukovo,,,,Внуково,ru:Внуково (район Москвы),37.300255,55.611698,264180569
Починки,Pochinki,RU,Нижегородская область,,Починки,ru:Починки (Починковский район),44.8612893,54.6974517,264351243
Яранск,Yaransk,RU,Кировская область,Яранский район,Яранск,ru:Яранск,47.8773055,57.3012512,264358670
Советск,Sovetsk,RU,Кировская область,Советский район,Советск,ru:Советск (Кировская область),48.9586978,57.5861888,264365304
Кикнур,Kiknur,RU,Кировская область,,Кикнур,ru:Кикнур,47.2089404,57.3049331,264365776
Шахунья,Shakhunya,RU,Нижегородская область,,Шахунья,ru:Шахунья,46.6152378,57.6730182,264365777
Красные Баки,,,Нижегородская область,Краснобаковский район,Красные Баки,ru:Красные Баки,45.1664096,57.1268348,264366303
Лукоянов,Lukoyanov,RU,Нижегородская область,Лукояновский район,Лукоянов,ru:Лукоянов,44.492725,55.034821,264367550
Меленки,,RU,Владимирская область,Меленковский район,Меленки,ru:Меленки,41.6314063,55.3368374,265316295
Навашино,Navashino,RU,Нижегородская область,,Навашино,ru:Навашино,42.188671,55.544071,265727566
Спас-Клепики,Spas-Klepiki,RU,Рязанская область,Клепиковский район,Спас-Клепики,ru:Спас-Клепики,40.176037,55.130867,265857299
Малаховка,Malakhovka,RU,Московская область,городской округ Люберцы,Малаховка,ru:Малаховка,38.0042385,55.6452616,265998757
Родники,Rodniki,RU,Московская область,Раменский городской округ,Родники,ru:Родники (Раменский район),38.0628479,55.6524418,266034277
Выкса,Vyksa,,,,Выкса,ru:Выкса,42.1800408,55.318774,266213137
Кулебаки,Kulebaki,RU,Нижегородская область,,Кулебаки,ru:Кулебаки,42.511879,55.429287,266213444
Балакирево,,RU,Владимирская область,Александровский район,Балакирево,ru:Балакирево (Владимирская область),38.8419,56.5072,266295150
Черняховск,Chernyakhovsk,RU,Калининградская область,Черняховский муниципальный округ,Черняховск,ru:Черняховск,21.8099822,54.635533,266714836
Красково,Kraskovo,RU,Московская область,городской округ Люберцы,Красково,ru:Красково,37.9798073,55.6587214,267102723
Белоусово,Belousovo,RU,Калужская область,Жуковский район,Белоусово,ru:Белоусово (город),36.6613397,55.089725,267622126
Ярково,,RU,Тюменская область,Ярковский район,Ярково,ru:Ярково (Тюменская область),67.07177,57.405594,268739870
Зуевка,Zuevka,RU,Кировская область,Зуевский район,Зуевка,ru:Зуевка,51.1388605,58.4060241,268926481
Жуков,Zhukov,RU,Калужская область,Жуковский район,Жуков,ru:Жуков (город),36.7489,55.0338,269243483
Струнино,Strunino,RU,Владимирская область,Александровский район,Струнино,ru:Струнино,38.586,56.374,269806572
Наро-Фоминск,Naro-Fominsk,RU,Московская область,Наро-Фоминский городской округ,Наро-Фоминск,ru:Наро-Фоминск,36.7398309,55.3879473,270420987
Железноводск,Zheleznovodsk,RU,Ставропольский край,,Железноводск,ru:Железноводск,43.0090751,44.1424034,270529337
Минеральные Воды,Mineralnye Vody,RU,Ставропольский край,,Минеральные Воды,ru:Минеральные Воды,43.134969,44.2107377,270531692
Павловская,Pavlovskaya,RU,Краснодарский край,Павловский район,Павловская,ru:Павловская (Краснодарский край),39.782918,46.1352557,270691553
Губаха,Gubakha,RU,Пермский край,,Губаха,ru:Губаха,57.555058,58.842407,270875270
Томилино,Tomilino,RU,Московская область,городской округ Люберцы,Томилино,ru:Городское поселение Томилино,37.9464009,55.6533898,271172616
Чехов,Chekhov,RU,Московская область,городской округ Чехов,Чехов,ru:Чехов (Московская область),37.4545328,55.1426603,271231306
Сылва,,RU,Пермский край,Пермский муниципальный округ,Сылва,ru:Сылва (Пермский край),56.7488434,58.0390973,271277492
Таруса,Tarusa,RU,Калужская область,Тарусский район,Таруса,ru:Таруса,37.1815538,54.7293536,271283522
Чебаркуль,Chebarkul,RU,Челябинская область,,Чебаркуль,ru:Чебаркуль,60.37009,54.977795,271954653
Кунгур,Kungur,RU,Пермский край,,Кунгур,ru:Кунгур,56.944328,57.428844,272601866
Верещагино,Vereshchagino,RU,Пермский край,Верещагинский городской округ,Верещагино,ru:Верещагино,54.6674784,58.072099,272616339
Кез,,RU,Удмуртия,Кезский район,Кез,ru:Кез,53.713921,57.896446,272616739
Краснокамск,Krasnokamsk,,,,Краснокамск,ru:Краснокамск,55.7586943,58.0812613,272625640
Решетиха,,,Нижегородская область,Володарский район,Решетиха,ru:Решетиха,43.296764,56.216469,272820696
Никель,Nikel,RU,Мурманская область,Печенгский муниципальный округ,Никель,ru:Никель (посёлок),30.2114216,69.4062217,272845466
Идрица,Idritsa,RU,Псковская область,Себежский район,Идрица,ru:Идрица,28.8920106,56.3333942,273195256
Волосово,Volosovo,RU,Ленинградская область,Волосовский район,Волосово,ru:Волосово,29.4838591,59.4453384,273215574
Вырица,Vyritsa,RU,Ленинградская область,Гатчинский район,Вырица,ru:Вырица,30.3496831,59.4126621,273215575
Коммунар,Kommunar,RU,Ленинградская область,Гатчинский район,Коммунар,ru:Коммунар (Гатчинский район),30.3919223,59.6221955,273215576
Лениногорск,Leninogorsk,RU,Татарстан,Лениногорский район,Лениногорск,ru:Лениногорск,52.4469099,54.5994324,273310116
Суксун,Suksun,RU,Пермский край,Суксунский городской округ,Суксун,ru:Суксун,57.3951339,57.1463922,274749672
Мирный,Mirnyi,,,,Мирный,uk:Мирний (Крим),33.0357639,45.3080619,275186298
Шилово,Shilovo,RU,Рязанская область,Шиловский район,Шилово,ru:Шилово (Шиловский район),40.887768,54.318344,275666218
Большой Луг,Bolshoy Lug,RU,Иркутская область,Шелеховский район,Большой Луг,ru:Большой Луг (Иркутская область),104.0918894,52.0778859,275772033
Шелехов,Shelekhov,RU,Иркутская область,,Шелехов,ru:Шелехов (город),104.097683,52.2097478,275772536
Железногорск,Zheleznogorsk,RU,Красноярский край,,Железногорск,ru:Железногорск (Красноярский край),93.53286,56.250938,275803988
Сосновоборск,Sosnovoborsk,RU,Красноярский край,,Сосновоборск,ru:Сосновоборск (Красноярский край),93.33873,56.121494,275804020
Бородино,Borodino,RU,Красноярский край,,Бородино,ru:Бородино (город),94.8930452,55.8997187,275804138
Уяр,Uyar,RU,Красноярский край,,Уяр,ru:Уяр,94.327774,55.809986,275804147
Заозёрный,Zaozyorny,RU,Красноярский край,,Заозёрный,ru:Заозёрный,94.708107,55.965401,275804229
Лесосибирск,Lesosibirsk,RU,Красноярский край,,Лесосибирск,ru:Лесосибирск,92.48597,58.223511,275805295
Енисейск,Yeniseysk,RU,Красноярский край,,Енисейск,ru:Енисейск,92.1748169,58.4532212,275805315
Назарово,Nazarovo,RU,Красноярский край,,Назарово,ru:Назарово (Красноярский край),90.418503,56.011593,275806099
Шарыпово,Sharypovo,RU,Красноярский край,,Шарыпово,ru:Шарыпово,89.1864204,55.5329127,275807106
Дивногорск,Divnogorsk,RU,Красноярский край,,Дивногорск,ru:Дивногорск,92.37542,55.959644,275807520
Минусинск,Minusinsk,RU,Красноярский край,,Минусинск,ru:Минусинск,91.697235,53.700325,275808256
Майна,Mayna,,,,Майна,ru:Майна (Хакасия),91.487083,52.998306,275808402
Саяногорск,Sayanogorsk,,,,Саяногорск,ru:Саяногорск,91.4128377,53.0899015,275808498
Ужур,Uzhur,RU,Красноярский край,Ужурский район,Ужур,ru:Ужур,89.8424197,55.3197221,276092539
Алзамай,Alzamay,RU,Иркутская область,Нижнеудинский район,Алзамай,ru:Алзамай,98.6654191,55.554956,276092580
Куйтун,Kuytun,RU,Иркутская область,,Куйтун,ru:Куйтун,101.506195,54.344154,276092772
Саянск,Sayansk,RU,Иркутская область,,Саянск,ru:Саянск,102.1785158,54.1123301,276092773
Зима,Zima,RU,Иркутская область,,Зима,ru:Зима (город),102.052727,53.928402,276092774
Залари,Zalari,RU,Иркутская область,Заларинский район,Залари,ru:Залари,102.515991,53.566238,276092781
Черемхово,Cheremkhovo,RU,Иркутская область,,Черемхово,ru:Черемхово,103.070145,53.148434,276092950
Свирск,Svirsk,RU,Иркутская область,,Свирск,ru:Свирск,103.342331,53.066269,276092975
Усолье-Сибирское,Usolye-Sibirskoye,RU,Иркутская область,,Усолье-Сибирское,ru:Усолье-Сибирское,103.6621625,52.7512013,276092977
Байкальск,Baykalsk,,,,Байкальск,,104.1410261,51.5171917,276093348
Сокол,Sokol,RU,Вологодская область,Сокольский район,Сокол,ru:Сокол (город),40.112858,59.462799,276104425
Борзя,Borzya,RU,Забайкальский край,Борзинский район,Борзя,ru:Борзя,116.5330685,50.3851808,276113583
Забайкальск,Zabaykalsk,RU,Забайкальский край,Забайкальский район,Забайкальск,ru:Забайкальск,117.329025,49.644653,276113713
Беломорск,Belomorsk,RU,,Беломорский район,Беломорск,ru:Беломорск,34.7625835,64.5216684,276627958
Данилов,Danilov,RU,Ярославская область,,Данилов,ru:Данилов (город),40.175114,58.188808,276646949
Бикин,Bikin,RU,Хабаровский край,Бикинский район,Бикин,ru:Бикин (город),134.254822,46.819363,276994866
Лучегорск,Luchegorsk,RU,Приморский край,,Лучегорск,ru:Лучегорск,134.3006729,46.4443195,277007085
Дальнереченск,Dalneretschensk,RU,Приморский край,Дальнереченский городской округ,Дальнереченск,ru:Дальнереченск,133.7349056,45.9337195,277057968
Вяземский,Vyazemskiy,,Хабаровский край,,Вяземский,ru:Вяземский (город),134.757874,47.533455,277060596
Новобурейский,,RU,Амурская область,Бурейский муниципальный округ,Новобурейский,ru:Новобурейский,129.8734105,49.7939604,277113009
Свободный,Svobodny,RU,Амурская область,городской округ Свободный,Свободный,ru:Свободный (город),128.13475,51.377354,277118590
Шимановск,Shimanovsk,RU,Амурская область,,Шимановск,ru:Шимановск,127.6719156,51.9987022,277139530
Чапаевск,Chapaevsk,RU,Самарская область,городской округ Чапаевск,Чапаевск,ru:Чапаевск,49.711193,52.981285,277531139
Могоча,Mogocha,RU,Забайкальский край,Могочинский район,Могоча,ru:Могоча,119.7624853,53.7362642,277576357
Витязево,Vityazevo,RU,Краснодарский край,городской округ Анапа,Витязево,ru:Витязево,37.2607195,44.9897066,277678134
Белово,Belovo,RU,Кемеровская область,,Белово,ru:Белово,86.303429,54.419323,277750915
Татарск,Tatarsk,RU,Новосибирская область,Татарский район,Татарск,ru:Татарск,75.962196,55.216961,278023046
Красногородск,Krasnogorodsk,RU,Псковская область,Красногородский район,Красногородск,ru:Красногородск,28.284595,56.830654,278141459
Югорск,Yugorsk,,,,Югорск,ru:Югорск,63.3315999,61.3149709,278211683
Советский,Sovetskiy,,,Советский район,Советский,ru:Советский (Ханты-Мансийский автономный округ),63.57354,61.362099,278216664
Нерчинск,Nerchinsk,,,,Нерчинск,ru:Нерчинск,116.588341,51.97694,278298564
Зея,Zeya,RU,Амурская область,,Зея,ru:Зея (Амурская область),127.2716246,53.7403584,278380012
Сапожок,Sapozhok,RU,Рязанская область,Сапожковский район,Сапожок,ru:Сапожок (Рязанская область),40.6826073,53.943381,278762572
Ухолово,Uholovo,RU,Рязанская область,Ухоловский район,Ухолово,ru:Ухолово,40.488274,53.791138,278769413
Ряжск,Ryazhsk,RU,Рязанская область,Ряжский район,Ряжск,ru:Ряжск,40.062984,53.708878,278770412
Усть-Ишим,Ust-Ishim,RU,Омская область,Усть-Ишимский район,Усть-Ишим,ru:Усть-Ишим,71.169968,57.693462,278876144
Викулово,,RU,Тюменская область,Викуловский район,Викулово,ru:Викулово,70.605362,56.815155,278907444
Ордынское,Ordynskoye,RU,Новосибирская область,Ордынский район,Ордынское,ru:Ордынское,81.904022,54.366676,278991732
Камень-на-Оби,Kamen-na-Obi,RU,Алтайский край,,Камень-на-Оби,ru:Камень-на-Оби,81.3516358,53.7936761,278992054
Няндома,Nyandoma,RU,Архангельская область,Няндомский район,Няндома,ru:Няндома,40.1970404,61.6612985,279013780
Красногорский,Krasnogorskiy,RU,Челябинская область,Еманжелинский район,Красногорский,ru:Красногорский (Челябинская область),61.2311885,54.5984354,279240513
Усть-Кут,Ust-Kut,RU,Иркутская область,Усть-Кутский район,Усть-Кут,ru:Усть-Кут,105.7460255,56.7810026,279978754
Северобайкальск,Severobaikalsk,RU,Бурятия,,Северобайкальск,ru:Северобайкальск,109.335648,55.635967,279980750
Гусиноозёрск,Gusinoozyorsk,RU,Бурятия,Селенгинский район,Гусиноозёрск,ru:Гусиноозёрск,106.527008,51.289516,279983984
Кяхта,Kyakhta,RU,Бурятия,Кяхтинский район,Кяхта,ru:Кяхта,106.44915,50.353176,279985581
Тында,Tynda,RU,Амурская область,городской округ Тында,Тында,ru:Тында,124.7375884,55.149694,279987689
Чульман,Chulman,RU,Республика Саха (Якутия),Нерюнгринский улус,Чульман,ru:Чульман (посёлок городского типа),124.904716,56.840408,280067854
Томмот,Tommot,RU,Республика Саха (Якутия),Алданский улус,Томмот,ru:Томмот,126.266853,58.968536,280078404
Амга,Amga,RU,Республика Саха (Якутия),Амгинский улус,Амга,ru:Амга (Якутия),131.97998,60.894218,280109123
Ижморский,Izhmorsky,,Кемеровская область,,Ижморский,ru:Ижморский,86.637169,56.192169,280162925
Сусуман,Susuman,RU,Магаданская область,,Сусуман,ru:Сусуман,148.15361,62.779732,280182070
Усть-Нера,Ust-Nera,RU,Республика Саха (Якутия),Оймяконский улус,Усть-Нера,ru:Усть-Нера,143.237839,64.566376,280183184
Краснозёрское,Krasnozyorskoye,RU,Новосибирская область,Краснозёрский район,Краснозёрское,ru:Краснозёрское,79.228577,53.984768,280352393
Кочки,Kochki,RU,Новосибирская область,Кочковский район,Кочки,ru:Кочки (Новосибирская область),80.487846,54.334766,280352878
Усть-Кокса,Ust-Koksa,,,,Усть-Кокса,ru:Усть-Кокса,85.6155842,50.2695927,280404821
Шебалино,Shebalino,,,,Шебалино,ru:Шебалино (Республика Алтай),85.6739928,51.2922638,280513195
Майма,Mayma,RU,Республика Алтай,Майминский район,Майма,ru:Майма,85.898743,52.004684,280513628
Усть-Кан,Ust-Kan,,,,Усть-Кан,ru:Усть-Кан (Республика Алтай),84.765213,50.932003,280521185
Белокуриха,Belokurikha,RU,Алтайский край,городской округ Белокуриха,Белокуриха,ru:Белокуриха,84.9860861,51.9994856,280548716
Турочак,Turochak,RU,Республика Алтай,Турочакский район,Турочак,ru:Турочак,87.117538,52.259956,280550570
Борисоглебск,Borisoglebsk,RU,Воронежская область,,Борисоглебск,ru:Борисоглебск,42.075169,51.368015,280822642
Чемал,Chemal,RU,Республика Алтай,Чемальский район,Чемал,ru:Чемал (село),86.003571,51.406906,281293974
Сузун,Suzun,RU,Новосибирская область,Сузунский район,Сузун,ru:Сузун,82.316231,53.783924,281427282
Шелаболиха,,RU,Алтайский край,Шелаболихинский район,Шелаболиха,ru:Шелаболиха (село),82.5971994,53.4174823,281428332
Павловск,Pavlovsk,RU,Алтайский край,Павловский район,Павловск,ru:Павловск (Алтайский край),82.9899119,53.3133356,281428653
Южный,Yuzhny,,,,Южный,ru:Южный (городской округ город Барнаул),83.693886,53.254749,281428696
Новоалтайск,Novoaltaysk,RU,Алтайский край,,Новоалтайск,ru:Новоалтайск,83.939407,53.393341,281428908
Сибирский,Sibirsky,RU,Алтайский край,,Сибирский,ru:Сибирский (Алтайский край),83.838425,53.557068,281429248
Тальменка,Talmenka,RU,Алтайский край,,Тальменка,ru:Тальменка,83.562011,53.8176306,281431381
Черепаново,Cherepanovo,RU,Новосибирская область,Черепановский район,Черепаново,ru:Черепаново,83.370468,54.226101,281431442
Линёво,Linyovo,RU,Новосибирская область,Искитимский район,Линёво,ru:Линёво (Новосибирская область),83.379074,54.456459,281431602
Искитим,Iskitim,RU,Новосибирская область,,Искитим,ru:Искитим,83.3035676,54.6426269,281431605
Барабинск,Barabinsk,RU,Новосибирская область,Барабинский район,Барабинск,ru:Барабинск,78.350348,55.3567611,281431826
Каргат,Kargat,RU,Новосибирская область,Каргатский район,Каргат,ru:Каргат (город),80.2828252,55.1929899,281433268
Чулым,Chulym,RU,Новосибирская область,Чулымский район,Чулым,ru:Чулым (город),80.970459,55.09,281433500
Маркс,Marx,RU,Саратовская область,Марксовский район,Маркс,ru:Маркс (город),46.7483653,51.7069911,281613050
Киевский,Kiyevsky,RU,Москва,,Киевский,ru:Киевский (Москва),36.8684242,55.4302632,282045438
Окуловка,Okulovka,,Новгородская область,Окуловский район,Окуловка,ru:Окуловка,33.3009383,58.3740782,282462417
Нижний Бестях,Nizhny Bestyakh,RU,Республика Саха (Якутия),Мегино-Кангаласский улус,Нижний Бестях,ru:Нижний Бестях,129.911346,61.957066,282596576
Демянск,Demyansk,RU,Новгородская область,Демянский район,Демянск,ru:Демянск,32.4646788,57.6423554,282635858
Холм,Kholm,RU,Новгородская область,Холмский район,Холм,ru:Холм (город),31.182678,57.150761,282656834
Сольцы,,RU,Новгородская область,Солецкий муниципальный округ,Сольцы,ru:Сольцы,30.309679,58.119003,282671987
Карасук,Karasuk,RU,Новосибирская область,Карасукский район,Карасук,ru:Карасук (город),78.032372,53.73447,282914618
Славгород,Slavgorod,RU,Алтайский край,,Славгород,ru:Славгород (Алтайский край),78.646251,52.9892428,282914871
Азов,Azov,RU,Ростовская область,,Азов,ru:Азов,39.4259657,47.1139219,283030477
Хабары,,RU,Алтайский край,,Хабары,ru:Хабары (Алтайский край),79.5404777,53.6236801,283088823
Панкрушиха,Pankrushikha,RU,Алтайский край,Панкрушихинский район,Панкрушиха,ru:Панкрушиха,80.3442706,53.8328616,283088976
Очёр,Otchor,RU,Пермский край,Очёрский городской округ,Очёр,ru:Очёр,54.715823,57.8836175,283530592
Полазна,Polazna,RU,Пермский край,Добрянский городской округ,Полазна,ru:Полазна,56.4136872,58.2909057,283579400
Добрянка,Dobryanka,RU,Пермский край,Добрянский городской округ,Добрянка,ru:Добрянка,56.4245447,58.4534571,283581865
Сковородино,Skovorodino,RU,Амурская область,Сковородинский район,Сковородино,ru:Сковородино,123.9373454,53.9862567,283588621
Кутулик,Kutulik,,,,Кутулик,ru:Кутулик,102.7949052,53.3494147,283703527
Ермолаево,Yermolayevo,RU,Башкортостан,Куюргазинский район,Ермолаево,ru:Ермолаево (Башкортостан),55.834736,52.703259,285339173
Боград,Bograd,,Республика Хакасия,,Боград,ru:Боград,90.856026,54.21806,285340786
Шира,Shira,,Республика Хакасия,,Шира,ru:Шира (село),89.962891,54.48764,285360076
Копьёво,Kopyovo,,,,Копьёво,ru:Копьёво (посёлок; Хакасия),89.826622,54.992966,285365947
Струги Красные,Strugi Krasnye,,,,Струги Красные,ru:Струги Красные,29.1115963,58.2693219,285580257
Красновишерск,Krasnovishersk,RU,Пермский край,Красновишерский городской округ,Красновишерск,ru:Красновишерск,57.0767045,60.4017837,285734826
Усолье,Usolye,RU,Пермский край,городской округ Березники,Усолье,ru:Усолье,56.6830803,59.4180251,285736802
Яйва,,RU,Пермский край,Александровский муниципальный округ,Яйва,ru:Яйва (посёлок городского типа),57.266155,59.3321491,285738845
Александровск,Alexandrovsk,RU,Пермский край,Александровский муниципальный округ,Александровск,ru:Александровск (Пермский край),57.5861232,59.1593861,285745298
Кизел,Kizel,,Пермский край,,Кизел,ru:Кизел,57.6535,59.049252,285746241
Чусовой,Chusovoy,RU,Пермский край,Чусовской городской округ,Чусовой,ru:Чусовой,57.821075,58.282055,285749160
Черногорск,Chernogorsk,,,,Черногорск,ru:Черногорск,91.31321,53.828236,285889059
Зубцов,Zubtsov,RU,Тверская область,Зубцовский район,Зубцов,ru:Зубцов,34.585182,56.170071,285962678
Ак-Довурак,Ak-Dovurak,RU,,,Ак-Довурак,ru:Ак-Довурак,90.5934434,51.173087,286084866
Чадан,Chadan,,,,Чадан,ru:Чадан,91.582817,51.286018,286085202
Шагонар,Shagonar,,,,Шагонар,ru:Шагонар,92.9194074,51.538721,286085444
Туран,Turan,RU,,,Туран,ru:Туран (город),93.9186434,52.1458093,286085489
Сарыг-Сеп,Saryg-Sep,,,Каа-Хемский кожуун,Сарыг-Сеп,ru:Сарыг-Сеп,95.554681,51.492626,286200781
Кызыл-Мажалык,Kyzyl-Mazhalyk,RU,,,Кызыл-Мажалык,ru:Кызыл-Мажалык,90.5814803,51.1454611,286203959
Абаза,Abaza,,,,Абаза,ru:Абаза (город),90.101159,52.6510546,286214595
Троицк,Troitsk,,,,Троицк,ru:Троицк (Челябинская область),61.551991,54.084549,286523928
Покровск,Pokrovsk,RU,,Хангаласский улус,Покровск,ru:Покровск (Якутия),129.1540617,61.48327,286554085
Холмск,Kholmsk,RU,Сахалинская область,Холмский городской округ,Холмск,ru:Холмск,142.0487125,47.0545875,286560902
Рамонь,,RU,Воронежская область,Рамонский район,Рамонь,ru:Рамонь,39.342144,51.910381,286831504
Абан,,RU,Красноярский край,Абанский район,Абан,ru:Абан (посёлок),96.067764,56.67667,286923453
Уват,,RU,Тюменская область,Уватский район,Уват,ru:Уват (Тюменская область),68.894775,59.142658,286953863
Калач-на-Дону,Kalach-na-Donu,RU,Волгоградская область,Калачёвский район,Калач-на-Дону,ru:Калач-на-Дону,43.524063,48.692699,286982957
Новоузенск,Novouzensk,RU,Саратовская область,Новоузенский район,Новоузенск,ru:Новоузенск,48.135532,50.462326,287005365
Сальск,Salsk,RU,Ростовская область,Сальский район,Сальск,ru:Сальск,41.541008,46.476669,287039558
Зимовники,,RU,Ростовская область,Зимовниковский район,Зимовники,ru:Зимовники (Ростовская область),42.46497,47.148918,287040070
Завьялово,Zav'yalovo,RU,Удмуртия,Завьяловский район,Завьялово,ru:Завьялово (Удмуртия),53.3776005,56.784662,287050506
Боровичи,Borovichi,,Новгородская область,Боровичский район,Боровичи,ru:Боровичи,33.9068275,58.389009,287260036
Надым,Nadym,RU,Ямало-Ненецкий автономный округ,,Надым,ru:Надым,72.52,65.532,287337481
Карачаевск,Karachayevsk,RU,,,Карачаевск,ru:Карачаевск,41.911979,43.7715594,287387383
Прохладный,Prokhladny,,,,Прохладный,ru:Прохладный,44.0103981,43.7590017,287411141
Алагир,Alagir,RU,,Алагирский район,Алагир,ru:Алагир,44.220451,43.039841,287516647
Избербаш,Izberbash,RU,Дагестан,,Избербаш,ru:Избербаш,47.862999,42.5710804,287661153
Касумкент,Kasumkent,RU,Дагестан,Сулейман-Стальский район,Касумкент,ru:Касумкент,48.1516324,41.6758118,287662481
Буйнакск,Buynaksk,RU,Дагестан,городской округ Буйнакск,Буйнакск,ru:Буйнакск,47.1219624,42.8260906,287670803
Дагестанские Огни,Dagestanskiye Ogni,RU,Дагестан,,Дагестанские Огни,ru:Дагестанские Огни,48.1864201,42.1152434,287673747
Кизилюрт,Kizilyurt,RU,Дагестан,,Кизилюрт,ru:Кизилюрт,46.8713343,43.1999049,287686736
Южно-Сухокумск,Yuzhno-Sukhokumsk,RU,Дагестан,,Южно-Сухокумск,ru:Южно-Сухокумск,45.645138,44.662231,287687179
Аргун,Argun,RU,,,Аргун,ru:Аргун (город),45.8688918,43.2950455,287702846
Гудермес,Gudermes,,,,Гудермес,en:Gudermes,46.095945,43.3486103,287703730
Шали,Shali,RU,,Шалинский район,Шали,ru:Шали,45.906578,43.153942,287704409
Пугачёв,Pugachyov,,,,Пугачёв,ru:Пугачёв (город),48.8109795,52.0121253,287756202
Карабулак,Karabulak,RU,Ингушетия,,Карабулак,ru:Карабулак (город),44.910334,43.3094909,287798315
Игра,Igra,RU,Удмуртия,Игринский район,Игра,ru:Игра (Удмуртия),53.0991803,57.5467442,288089948
Карагай,Karagay,RU,Пермский край,Карагайский муниципальный округ,Карагай,ru:Карагай (Пермский край),54.927208,58.265579,288092970
Кудымкар,Kudymkar,RU,Пермский край,Кудымкарский муниципальный округ,Кудымкар,ru:Кудымкар,54.664135,59.014606,288096530
Горнозаводск,Gornozavodsk,RU,Пермский край,Горнозаводский городской округ,Горнозаводск,ru:Горнозаводск (Пермский край),58.325058,58.374001,288115144
Качканар,Kachkanar,RU,Свердловская область,,Качканар,ru:Качканар,59.4810114,58.6981697,288119622
Зубова Поляна,Zubova Polyana,RU,Мордовия,Зубово-Полянский район,Зубова Поляна,ru:Зубова Поляна,42.837425,54.079964,288418650
Кузнецк,Kuznetsk,RU,Пензенская область,,Кузнецк,tt:Күзнәй,46.600727,53.112514,288419752
Аргаяш,Argayash,RU,Челябинская область,Аргаяшский район,Аргаяш,ru:Аргаяш,60.8776278,55.4908093,288472058
Кыштым,Kyshtym,RU,Челябинская область,Кыштымский городской округ,Кыштым,ru:Кыштым,60.5511275,55.7099215,288476845
Верхний Уфалей,Verkhniy Ufaley,RU,Челябинская область,Верхнеуфалейский городской округ,Верхний Уфалей,ru:Верхний Уфалей,60.226448,56.052029,288477933
Яровое,Yarovoye,RU,Алтайский край,,Яровое,ru:Яровое,78.563568,52.919704,288795864
Оса,Osa,RU,Пермский край,Осинский городской округ,Оса,tt:Уса,55.4602059,57.2829207,289011795
Асбест,Asbest,RU,Свердловская область,Асбестовский городской округ,Асбест,ru:Асбест (город),61.4580765,57.0052746,289146963
Криводановка,,RU,Новосибирская область,Новосибирский район,Криводановка,ru:Криводановка (село),82.6440062,55.0859006,289464809
Чоя,Choya,RU,Республика Алтай,Чойский район,Чоя,ru:Чоя,86.544221,52.0131939,289835271
Оса,Osa,,Иркутская область,,Оса,ru:Оса (село),103.877457,53.388348,289843365
Кулунда,Kulunda,RU,Алтайский край,Кулундинский район,Кулунда,ru:Кулунда (село),78.935448,52.566559,289890249
Калачинск,Kalachinsk,RU,Омская область,Калачинский район,Калачинск,ru:Калачинск,74.582428,55.049091,289980364
Горьковское,Gorkovskoye,RU,Омская область,Горьковский район,Горьковское,ru:Горьковское (Омская область),74.362556,55.371033,289992321
Одесское,Odesskoye,RU,Омская область,Одесский район,Одесское,ru:Одесское,72.965538,54.20969,289994080
Русская Поляна,Russkaya Polyana,RU,Омская область,,Русская Поляна,ru:Русская Поляна (рабочий посёлок; Омская область),73.882103,53.780357,289996348
Карабаш,Karabash,RU,Челябинская область,Карабашский городской округ,Карабаш,ru:Карабаш,60.209541,55.485809,290070312
Здвинск,Zdvinsk,RU,Новосибирская область,Здвинский район,Здвинск,ru:Здвинск,78.667595,54.703968,290215681
Бачатский,Bachatsky,,Кемеровская область,,Бачатский,ru:Бачатский,86.104759,54.283138,290330613
Малышева,Malysheva,RU,Свердловская область,Малышевский городской округ,Малышева,ru:Малышева (Свердловская область),61.397663,57.116123,290611540
Туруханск,Turukhansk,RU,Красноярский край,,Туруханск,ru:Туруханск,87.9589375,65.7934285,290781841
Ферзиково,,RU,Калужская область,Ферзиковский район,Ферзиково,ru:Ферзиково,36.762459,54.515606,290875518
Воротынск,,RU,Калужская область,Бабынинский район,Воротынск,ru:Воротынск (Бабынинский район),36.050098,54.474602,290875724
Полотняный Завод,,RU,Калужская область,Дзержинский район,Полотняный Завод,ru:Полотняный Завод,35.9977093,54.7426018,290875760
,Naushki,RU,Бурятия,Кяхтинский район,Наушки,ru:Наушки,106.10614,50.392094,290884076
Новоуральск,Novouralsk,RU,Свердловская область,Новоуральский городской округ,Новоуральск,ru:Новоуральск,60.095818,57.247047,290884279
Невьянск,Nevyansk,RU,Свердловская область,Невьянский городской округ,Невьянск,ru:Невьянск,60.2105408,57.4924036,290884698
Новая Ляля,Novaya Lyalya,RU,Свердловская область,Новолялинский городской округ,Новая Ляля,ru:Новая Ляля,60.595974,59.052734,290885736
Кабанск,Kabansk,RU,Бурятия,Кабанский район,Кабанск,ru:Кабанск,106.65432,52.055408,290889369
Джубга,Dzhubga,RU,Краснодарский край,Туапсинский район,Джубга,ru:Джубга,38.7043664,44.3170538,290905151
Дагомыс,Dagomys,,,,Дагомыс,ru:Дагомыс,39.6544373,43.6590048,290911788
Балахта,Balakhta,RU,Красноярский край,Балахтинский район,Балахта,ru:Балахта,91.615273,55.383221,291558905
Суземка,Suzemka,RU,Брянская область,Суземский район,Суземка,ru:Суземка,34.0759496,52.316133,291614444
Маслянино,Maslyanino,RU,Новосибирская область,Маслянинский район,Маслянино,ru:Маслянино,84.21067,54.345501,291860771
Полевской,Polevskoy,RU,Свердловская область,Полевской городской округ,Полевской,ru:Полевской,60.165859,56.442108,291942235
Заозёрск,Zaozersk,RU,Мурманская область,ЗАТО Заозёрск,Заозёрск,ru:Заозёрск,32.441334,69.400925,292226474
Гаджиево,Gadzhiyevo,RU,Мурманская область,ЗАТО Александровск,Гаджиево,ru:Гаджиево,33.315281,69.250359,292231968
Полярный,Polyarny,RU,Мурманская область,ЗАТО Александровск,Полярный,ru:Полярный,33.445839,69.199524,292235034
Дивеево,Diveyevo,,,,Дивеево,ru:Дивеево,43.245518,55.041687,292879578
Снежинск,Snezhinsk,RU,Челябинская область,Снежинский городской округ,Снежинск,ru:Снежинск,60.732674,56.087009,292885144
Бахчисарай,Bakhchysarai,,,,Бахчисарай,uk:Бахчисарай,33.8534782,44.7522963,292995540
Мурмаши,Murmashi,RU,Мурманская область,Кольский район,Мурмаши,ru:Мурмаши,32.816505,68.816956,293459034
Кола,Kola,RU,Мурманская область,Кольский район,Кола,ru:Кола (город),33.019726,68.880638,293459492
Болотное,Bolotnoye,RU,Новосибирская область,Болотнинский район,Болотное,ru:Болотное,84.388557,55.6715707,293591177
Вершино-Дарасунский,Vershino-Darasunsky,RU,Забайкальский край,,Вершино-Дарасунский,ru:Вершино-Дарасунский,115.550949,52.365974,295072813
Тяжинский,Tyazhinskiy,,Кемеровская область,,Тяжинский,ru:Тяжинский,88.5171814,56.1139351,295119416
Усть-Лабинск,Ust-Labinsk,RU,Краснодарский край,Усть-Лабинский район,Усть-Лабинск,ru:Усть-Лабинск,39.6896725,45.2178027,295381557
Васюринская,Vasyurinskaya,RU,Краснодарский край,Динской район,Васюринская,ru:Васюринская,39.4200463,45.1183262,295384821
Воронежская,Voronezhskaya,RU,Краснодарский край,Усть-Лабинский район,Воронежская,ru:Воронежская (станица),39.5670828,45.2120476,295385084
Пластуновская,Plastunovskaya,RU,Краснодарский край,Динской район,Пластуновская,ru:Пластуновская,39.2662799,45.2962422,295385847
Платнировская,Platnirovskaya,RU,Краснодарский край,Кореновский район,Платнировская,ru:Платнировская,39.3903857,45.391981,295386031
Елизаветинская,Yelizavetinskaya,RU,Краснодарский край,городской округ Краснодар,Елизаветинская,ru:Елизаветинская (Краснодарский край),38.7928963,45.0480573,295729620
Новомышастовская,Novomyshastovskaya,RU,Краснодарский край,Красноармейский район,Новомышастовская,ru:Новомышастовская,38.5795212,45.1987319,295730787
Динская,Dinskaya,RU,Краснодарский край,Динской район,Динская,ru:Динская,39.2249757,45.2168713,295754500
Буинск,Buinsk,RU,Татарстан,Буинский район,Буинск,ru:Буинск (Татарстан),48.2928964,54.9722866,295862317
Чистополь,Chistopol,RU,Татарстан,Чистопольский район,Чистополь,ru:Чистополь,50.6367311,55.3714831,295864677
Арск,Arsk,RU,Татарстан,Арский район,Арск,ru:Арск,49.8771828,56.0909916,295868224
Шуя,Shuya,RU,Ивановская область,городской округ Шуя,Шуя,ru:Шуя,41.3838496,56.8558465,295896340
Ермаковское,Yermakovskoye,RU,Красноярский край,Ермаковский район,Ермаковское,ru:Ермаковское,92.396088,53.278046,295902357
Шушенское,Shushenskoye,RU,Красноярский край,Шушенский район,Шушенское,ru:Шушенское,91.945374,53.32782,295939729
Черёмушки,Cheremushki,RU,,,Черёмушки,ru:Черёмушки (Хакасия),91.42038,52.848377,295945680
Курагино,Kuragino,RU,Красноярский край,Курагинский район,Курагино,ru:Курагино,92.680222,53.888092,295952416
Нолинск,Nolinsk,RU,Кировская область,Нолинский район,Нолинск,ru:Нолинск,49.9294668,57.5579577,296081305
Нема,Nema,RU,Кировская область,Немский муниципальный округ,Нема,ru:Нема (Кировская область),50.5021661,57.5052656,296086848
Кильмезь,Kilmez,RU,Кировская область,Кильмезский район,Кильмезь,ru:Кильмезь (Кировская область),51.0613993,56.9449015,296087893
Малмыж,Malmyzh,RU,Кировская область,Малмыжский район,Малмыж,ru:Малмыж,50.6775905,56.5206314,296100014
Уржум,Urzhum,RU,Кировская область,Уржумский район,Уржум,ru:Уржум,50.0003067,57.1101118,296113691
Сюмси,Syumsi,RU,Удмуртия,Сюмсинский район,Сюмси,ru:Сюмси,51.6147316,57.1081378,296120086
Ува,Uva,,,,Ува,ru:Ува (посёлок),52.1884394,56.9826616,296130162
Ядрин,Yadrin,RU,Чувашия,Ядринский район,Ядрин,ru:Ядрин,46.2006586,55.9407976,296134100
Тюкалинск,Tyukalinsk,RU,Омская область,Тюкалинский район,Тюкалинск,ru:Тюкалинск,72.196617,55.870556,296138675
Красный Яр,Krasny Yar,RU,Омская область,Любинский район,Красный Яр,ru:Красный Яр (Любинский район),72.923889,55.240089,296140782
Белореченск,Belorechensk,RU,Краснодарский край,Белореченский район,Белореченск,ru:Белореченск,39.8712943,44.7614149,296161951
Выселки,Vyselki,RU,Краснодарский край,Выселковский район,Выселки,ru:Выселки (станица),39.6574237,45.5806221,296346416
Яблоновский,Yablonovskiy,RU,Адыгея,Тахтамукайский район,Яблоновский,ru:Яблоновский (Адыгея),38.9382841,44.9864341,296362274
Энем,Enem,RU,Адыгея,Тахтамукайский район,Энем,ru:Энем,38.9071424,44.9230727,296362277
Афипский,Afipskiy,,Краснодарский край,Северский район,Афипский,ru:Афипский,38.8426821,44.9040435,296376882
Северская,Severskaya,RU,Краснодарский край,Северский район,Северская,ru:Северская,38.6781253,44.853421,296376924
Ильский,Ilskiy,RU,Краснодарский край,Северский район,Ильский,ru:Ильский,38.5702615,44.854575,296379510
Крымск,Krymsk,RU,Краснодарский край,Крымский район,Крымск,ru:Крымск,37.9880177,44.9295889,296379511
Чернушка,Chernushka,RU,Пермский край,Чернушинский городской округ,Чернушка,ru:Чернушка (город),56.0762788,56.500682,296410521
Куеда,,RU,Пермский край,Куединский муниципальный округ,Куеда,ru:Куеда (посёлок),55.590763,56.433506,296422834
Курганинск,Kurganinsk,RU,Краснодарский край,Курганинский район,Курганинск,ru:Курганинск,40.5894674,44.8851635,296537017
Калининская,Kalininskaya,RU,Краснодарский край,Калининский район,Калининская,ru:Калининская (Краснодарский край),38.6598137,45.4856626,296884989
Брюховецкая,Bryukhovetskaya,RU,Краснодарский край,Брюховецкий район,Брюховецкая,ru:Брюховецкая,39.0003034,45.8006166,296886272
Переясловская,Pereyaslovskaya,RU,Краснодарский край,Брюховецкий район,Переясловская,ru:Переясловская,39.021858,45.844673,296886273
Каневская,Kanevskaya,RU,Краснодарский край,Каневской район,Каневская,ru:Каневская,38.9724318,46.0848847,296886274
Стародеревянковская,Staroderevyankovskaya,RU,Краснодарский край,Каневской район,Стародеревянковская,ru:Стародеревянковская,38.9713729,46.1277738,296886275
Варениковская,Varenikovskaya,RU,Краснодарский край,Крымский район,Варениковская,ru:Варениковская,37.638737,45.121292,296937624
Старотитаровская,Starotitarovskaya,RU,Краснодарский край,Темрюкский район,Старотитаровская,ru:Старотитаровская,37.1480059,45.2188185,296992985
Тбилисская,Tbilisskaya,RU,Краснодарский край,Тбилисский район,Тбилисская,ru:Тбилисская,40.1898342,45.3635681,297082357
Ладожская,Ladozhskaya,RU,Краснодарский край,Усть-Лабинский район,Ладожская,ru:Ладожская (станица),39.9268511,45.3076593,297082471
Улаган,Ulagan,RU,,,Улаган,ru:Улаган,87.9561929,50.6317434,297513007
Тума,Tuma,RU,Рязанская область,Клепиковский район,Тума,ru:Тума,40.550247,55.146427,297546021
Медведовская,Medvyodovskaya,RU,Краснодарский край,Тимашёвский район,Медведовская,ru:Медведовская,39.0167858,45.4525812,297851423
Холмская,Kholmskaya,RU,Краснодарский край,Абинский район,Холмская,ru:Холмская,38.3950178,44.8432658,297958919
Ахтырский,Akhtyrskiy,RU,Краснодарский край,Абинский район,Ахтырский,ru:Ахтырский,38.2954504,44.8422046,297958920
Абинск,Abinsk,RU,Краснодарский край,Абинский район,Абинск,ru:Абинск,38.1578189,44.8649528,297958924
Старощербиновская,Staroshcherbinovskaya,RU,Краснодарский край,Щербиновский район,Старощербиновская,ru:Старощербиновская,38.6624971,46.6284506,298061350
Новотитаровская,Novotitarovskaya,RU,Краснодарский край,Динской район,Новотитаровская,ru:Новотитаровская,38.9712606,45.2360889,298080404
Апшеронск,Apsheronsk,RU,Краснодарский край,Апшеронский район,Апшеронск,ru:Апшеронск,39.741048,44.4618046,298352406
Тихорецк,Tikhoretsk,RU,Краснодарский край,Тихорецкий район,Тихорецк,ru:Тихорецк,40.128124,45.854679,298364538
Адыгейск,Adygeysk,RU,Адыгея,городской округ Адыгейск,Адыгейск,ru:Адыгейск,39.1909625,44.8833775,298455987
Роговская,Rogovskaya,RU,Краснодарский край,Тимашёвский район,Роговская,ru:Роговская (станица),38.739555,45.734535,298761165
Коктебель,Koktebel,,,,Коктебель,uk:Коктебель,35.2381272,44.9633478,299466010
Сасово,Sasovo,RU,Рязанская область,городской округ Сасово,Сасово,ru:Сасово,41.926643,54.35392,300156975
Назия,Naziya,RU,Ленинградская область,Кировский район,Назия,ru:Назия (Назиевское городское поселение),31.586657,59.8424,300377090
Новая Игирма,Novaya Igirma,,,,Новая Игирма,ru:Новая Игирма,103.924072,57.1442457,300582728
Железногорск-Илимский,Zheleznogorsk-Ilimsky,RU,Иркутская область,Нижнеилимский район,Железногорск-Илимский,ru:Железногорск-Илимский,104.12294,56.577915,300612214
Кодинск,Kodinsk,RU,Красноярский край,Кежемский район,Кодинск,ru:Кодинск,99.182915,58.596329,300659754
Бородинский,Borodinskiy,RU,Тульская область,Киреевский район,Бородинский,ru:Бородинский,37.813419,53.995277,300797342
Бугуруслан,,RU,Оренбургская область,городской округ Бугуруслан,Бугуруслан,ru:Бугуруслан,52.4182422,53.6247165,301014636
Краснознаменск,Krasnoznamensk,RU,Калининградская область,Краснознаменский муниципальный округ,Краснознаменск,ru:Краснознаменск (Калининградская область),22.4913626,54.9417584,301246150
Плюсса,Plyussa,RU,Псковская область,Плюсский район,Плюсса,ru:Плюсса (рабочий посёлок),29.3706,58.420612,301304385
Удельная,Udelnaya,RU,Московская область,Раменский городской округ,Удельная,ru:Удельная (посёлок городского типа),38.0448181,55.6359979,301337780
Кувандык,Kuvandyk,RU,Оренбургская область,Кувандыкский городской округ,Кувандык,ru:Кувандык,57.350796,51.478756,301425089
Новопокровская,Novopokrovskaya,RU,Краснодарский край,Новопокровский район,Новопокровская,ru:Новопокровская,40.707203,45.953815,301489268
Белая Глина,Belaya Glina,RU,Краснодарский край,Белоглинский район,Белая Глина,ru:Белая Глина (Краснодарский край),40.863701,46.078419,301490224
Архангельская,Arkhangelskaya,RU,Краснодарский край,Тихорецкий район,Архангельская,ru:Архангельская (Краснодарский край),40.275406,45.679554,301491695
Нижнебаканская,Nizhnebakanskaya,RU,Краснодарский край,Крымский район,Нижнебаканская,ru:Нижнебаканская,37.8608578,44.8646355,301586748
Анапская,Anapskaya,RU,Краснодарский край,городской округ Анапа,Анапская,ru:Анапская,37.3832216,44.9002856,301586752
Киренск,Kirensk,RU,Иркутская область,Киренский район,Киренск,ru:Киренск,108.116295,57.776356,301636452
Ленск,Lensk,,Республика Саха (Якутия),,Ленск,ru:Ленск,114.9172123,60.7145488,301639437
Рыбное,Rybnoye,RU,Рязанская область,Рыбновский район,Рыбное,ru:Рыбное,39.5088612,54.7268415,301648440
Мирный,Mirny,RU,Республика Саха (Якутия),Мирнинский улус,Мирный,ru:Мирный (Якутия),113.978584,62.541077,301761027
Удачный,Udachny,RU,Республика Саха (Якутия),Мирнинский улус,Удачный,ru:Удачный,112.2517294,66.411768,301770161
Нюрба,Nyurba,RU,Республика Саха (Якутия),Нюрбинский улус,Нюрба,ru:Нюрба,118.354149,63.286648,301775279
Вилюйск,Vilyuysk,RU,Республика Саха (Якутия),Вилюйский улус,Вилюйск,ru:Вилюйск,121.626549,63.754082,301778109
Айхал,Aykhal,RU,Республика Саха (Якутия),Мирнинский улус,Айхал,ru:Айхал,111.4917562,65.9516363,301789452
Бердигестях,Berdigestyakh,RU,Республика Саха (Якутия),Горный улус,Бердигестях,ru:Бердигестях,126.699837,62.098289,301822109
Усть-Баргузин,Ust-Barguzin,,,,Усть-Баргузин,,109.0311228,53.4107168,301956144
Олёкминск,Olyokminsk,RU,Республика Саха (Якутия),Олёкминский улус,Олёкминск,ru:Олёкминск,120.438751,60.373016,301959493
Турунтаево,Turuntaevo,,,,Турунтаево,,107.6383949,52.2023878,302019058
Качуг,Kachug,RU,Иркутская область,Качугский район,Качуг,ru:Качуг (Иркутская область),105.885147,53.960819,302036717
Сунтар,Suntar,RU,Республика Саха (Якутия),Сунтарский улус,Сунтар,ru:Сунтар,117.646332,62.157455,302066783
Мама,Mama,RU,Иркутская область,Мамско-Чуйский район,Мама,ru:Мама (Иркутская область),112.903419,58.310555,302372139
Пеледуй,Peleduy,RU,Республика Саха (Якутия),Ленский улус,Пеледуй,ru:Пеледуй (посёлок городского типа),112.750214,59.625267,302394449
Нижнеангарск,Nizhneangarsk,RU,Бурятия,Северо-Байкальский район,Нижнеангарск,ru:Нижнеангарск,109.571762,55.783573,302524562
Бичура,Bichura,RU,Бурятия,Бичурский район,Бичура,ru:Бичура (Бурятия),107.599274,50.588627,302534600
Верхоянск,Verkhoyansk,RU,Республика Саха (Якутия),Верхоянский улус,Верхоянск,ru:Верхоянск,133.3874618,67.5495068,302605557
Намцы,Namtsy,RU,Республика Саха (Якутия),Намский улус,Намцы,ru:Намцы,129.664246,62.718227,302878865
Умба,Umba,RU,Мурманская область,Терский район,Умба,ru:Умба (посёлок городского типа),34.3376019,66.6780339,303015164
Большое Болдино,Veliko Boldino,RU,Нижегородская область,Большеболдинский район,Большое Болдино,ru:Большое Болдино,45.310505,55.000713,303016392
Ревда,Revda,RU,Мурманская область,Ловозерский район,Ревда,ru:Ревда (Мурманская область),34.5489702,67.9415427,303019430
Псебай,Psebai,RU,Краснодарский край,Мостовский район,Псебай,ru:Псебай,40.7902989,44.1092655,303232160
Полярные Зори,Polarnie Zori,RU,Мурманская область,муниципальный округ Полярные Зори,Полярные Зори,ru:Полярные Зори,32.495792,67.374084,303353860
Зеленчукская,Zelenchukskaya,RU,,Зеленчукский район,Зеленчукская,ru:Зеленчукская,41.5853611,43.8549752,303486344
Островной,Ostrovnoy,RU,Мурманская область,ЗАТО Островной,Островной,ru:Островной,39.5129384,68.0544447,303968215
Заполярный,Zapolyarnyy,RU,Мурманская область,Печенгский муниципальный округ,Заполярный,ru:Заполярный,30.819939,69.426239,303973327
Североморск,Severomorsk,RU,Мурманская область,ЗАТО Североморск,Североморск,ru:Североморск,33.416656,69.069168,303980218
Ковдор,Kovdor,RU,Мурманская область,Ковдорский муниципальный округ,Ковдор,ru:Ковдор,30.474108,67.563049,304025149
Озёрск,Ozyorsk,,Калининградская область,,Озёрск,ru:Озёрск (Калининградская область),22.014359,54.408741,304337561
Чокурдах,Chokurdakh,RU,Республика Саха (Якутия),Аллаиховский улус,Чокурдах,ru:Чокурдах,147.902397,70.6193824,304552309
Гдов,Gdov,RU,Псковская область,Гдовский район,Гдов,ru:Гдов,27.8156854,58.743066,304552666
Радужный,Raduzhny,,,,Радужный,ru:Радужный (Ханты-Мансийский автономный округ),77.462616,62.135315,304605480
имени Полины Осипенко,Imeni Poliny Osipenko,RU,Хабаровский край,район имени Полины Осипенко,имени Полины Осипенко,ru:Село имени Полины Осипенко,136.48938,52.422848,304663037
Сторожевая,Storozhevaya,RU,,Зеленчукский район,Сторожевая,ru:Сторожевая (Карачаево-Черкесия),41.4534086,43.888099,304718065
Преградная,Pregradnaya,RU,,Урупский район,Преградная,ru:Преградная (станица),41.1917906,43.9528755,304718066
Лабинск,Labinsk,RU,Краснодарский край,Лабинский район,Лабинск,ru:Лабинск,40.7242185,44.6347953,304718444
Мостовской,Mostovskoy,RU,Краснодарский край,Мостовский район,Мостовской,ru:Мостовской,40.7899446,44.4138041,304718565
Валуйки,Valuyki,RU,Белгородская область,Валуйский городской округ,Валуйки,ru:Валуйки,38.100227,50.211296,304721209
Менделеево,Mendeleyevo,RU,Московская область,городской округ Солнечногорск,Менделеево,ru:Менделеево (Московская область),37.2333009,56.036856,306174317
Краснотурьинск,Krasnoturinsk,RU,Свердловская область,городской округ Краснотурьинск,Краснотурьинск,ru:Краснотурьинск,60.1936117,59.764631,306457009
Карпинск,Karpinsk,RU,Свердловская область,городской округ Карпинск,Карпинск,ru:Карпинск,60.0009267,59.7667893,306457427
Волчанск,Volchansk,RU,Свердловская область,Волчанский городской округ,Волчанск,ru:Волчанск (Свердловская область),60.0779677,59.9347177,306458157
Серебряные Пруды,Serebryanye Prudy,RU,Московская область,,Серебряные Пруды,ru:Серебряные Пруды,38.722333,54.4678385,306545784
Игрим,Igrim,,,Берёзовский район,Игрим,ru:Игрим,64.424301,63.191513,307058961
Приобье,Priobye,,,Октябрьский район,Приобье,ru:Приобье,65.6479261,62.544431,307067079
Урай,Uray,,,,Урай,ru:Урай,64.803627,60.12912,307089440
Пангоды,,RU,Ямало-Ненецкий автономный округ,муниципальный округ Надымский район,Пангоды,ru:Пангоды,74.494797,65.856575,307395771
Углеуральский,Ugleural'skiy,RU,Пермский край,,Углеуральский,ru:Углеуральский,57.587696,58.941525,307964759
Гремячинск,Gremyachinsk,RU,Пермский край,,Гремячинск,ru:Гремячинск,57.833389,58.566597,307965249
Лысьва,Lysva,RU,Пермский край,Лысьвенский городской округ,Лысьва,ru:Лысьва,57.8028461,58.105056,308220097
Шигоны,Shigony,RU,Самарская область,Шигонский район,Шигоны,ru:Шигоны,48.67807,53.3864032,308259963
Тужа,,RU,Кировская область,Тужинский район,Тужа,ru:Тужа,47.9373723,57.6053835,308664931
Вятские Поляны,Vyatskiye Polyany,RU,Кировская область,городской округ Вятские Поляны,Вятские Поляны,ru:Вятские Поляны,51.0749038,56.2229946,308800172
Жигулёвск,Zhigulyevsk,RU,Самарская область,городской округ Жигулёвск,Жигулёвск,ru:Жигулёвск,49.4955657,53.4005122,308801345
Домбаровский,Dombarovskiy,RU,Оренбургская область,Домбаровский район,Домбаровский,ru:Домбаровский,59.536777,50.760067,308877563
Светлый,Svetly,RU,Оренбургская область,Светлинский район,Светлый,ru:Светлый (Светлинский район),60.850288,50.820313,308879014
Отрадный,Otradny,RU,Самарская область,,Отрадный,ru:Отрадный,51.348053,53.376175,308897102
Грибановский,,RU,Воронежская область,Грибановский район,Грибановский,ru:Грибановский (посёлок городского типа),41.960777,51.450348,309065171
Михайлов,Mikhaylov,RU,Рязанская область,Михайловский район,Михайлов,ru:Михайлов (город),39.027538,54.230217,309353206
Кемь,Kem,RU,,Кемский район,Кемь,ru:Кемь (город),34.5697446,64.9550895,309493556
Пряжа,Pryazha,RU,,Пряжинский район,Пряжа,ru:Пряжа (посёлок городского типа),33.6224108,61.6932537,309773771
Питкяранта,Pitkyaranta,RU,,Питкярантский район,Питкяранта,ru:Питкяранта,31.4744211,61.5717807,309965794
Моздок,Mozdok,RU,,Моздокский район,Моздок,ru:Моздок,44.653614,43.735584,310022311
Кромы,Kromy,RU,Орловская область,Кромской район,Кромы,ru:Кромы,35.768337,52.688126,310173070
Тугулым,,RU,Свердловская область,Тугулымский городской округ,Тугулым,ru:Тугулым (рабочий посёлок),64.640633,57.058983,310352142
Талица,Talitsa,RU,Свердловская область,Талицкий городской округ,Талица,ru:Талица (город),63.730244,57.014816,310353722
Пышма,Pyshma,RU,Свердловская область,Пышминский городской округ,Пышма,ru:Пышма (Свердловская область),63.246532,56.950695,310353809
Камышлов,Kamyshlov,RU,Свердловская область,Камышловский городской округ,Камышлов,ru:Камышлов,62.712154,56.846161,310353926
Богданович,Bogdanovich,RU,Свердловская область,городской округ Богданович,Богданович,ru:Богданович (город),62.0520774,56.7683407,310354163
Белоярский,Beloyarsky,RU,Свердловская область,Белоярский городской округ,Белоярский,ru:Белоярский (Свердловская область),61.414257,56.761642,310354793
Новая Усмань,Novaya Usman,RU,Воронежская область,Новоусманский район,Новая Усмань,ru:Новая Усмань,39.4107009,51.6439692,310586971
Мортка,Mortka,,,Кондинский район,Мортка,ru:Мортка,66.022072,59.33028,310831029
Ирбит,Irbit,RU,Свердловская область,,Ирбит,ru:Ирбит,63.063778,57.674042,310877933
Городищи,,RU,Владимирская область,,Городищи,ru:Городищи (Петушинский район),39.0804943,55.8653058,310903862
Кириши,Kirishi,RU,Ленинградская область,Киришский район,Кириши,ru:Кириши,32.010578,59.450325,310912076
Упорово,,RU,Тюменская область,Упоровский район,Упорово,ru:Упорово,66.267189,56.312378,310963315
Аромашево,,RU,Тюменская область,Аромашевский район,Аромашево,ru:Аромашево,68.6473468,56.865017,310969957
Щёлкино,Shchyolkino,,,,Щёлкино,uk:Щолкіне,35.8222792,45.4291446,311423386
Ленино,Lenino,,,,Ленино,uk:Леніне (Ленінський район),35.7758985,45.297284,311425368
Багерово,Bagerovo,,,,Багерово,ru:Багерово,36.292,45.376,311427965
Подпорожье,Podporozhye,RU,Ленинградская область,Подпорожский район,Подпорожье,ru:Подпорожье,34.162354,60.914291,312404669
Купино,Kupino,RU,Новосибирская область,Купинский район,Купино,ru:Купино (Новосибирская область),77.30854,54.364929,312701724
Красный,Krasny,RU,Смоленская область,,Красный,ru:Красный (Смоленская область),31.439449,54.569439,312992742
Инза,Inza,RU,Ульяновская область,Инзенский район,Инза,ru:Инза,46.3573236,53.8579402,313570754
Кушва,Kushva,RU,Свердловская область,Кушвинский городской округ,Кушва,ru:Кушва,59.762329,58.281757,313659859
Собинка,Sobinka,RU,Владимирская область,Собинский район,Собинка,ru:Собинка,40.0150802,55.9903976,314413011
Гусь-Хрустальный,Gus-Khrustalny,RU,Владимирская область,,Гусь-Хрустальный,ru:Гусь-Хрустальный,40.6708665,55.6149968,314794893
Орда,Orda,RU,Пермский край,Ординский муниципальный округ,Орда,ru:Орда (село),56.905411,57.195717,315635178
Уинское,Uinskoye,RU,Пермский край,Уинский муниципальный округ,Уинское,ru:Уинское,56.5755418,56.8836279,315635287
Мокшан,Mokshan,RU,Пензенская область,Мокшанский район,Мокшан,ru:Мокшан,44.6059867,53.439527,316080804
Рузаевка,Ruzayevka,RU,Мордовия,Рузаевский район,Рузаевка,ru:Рузаевка,44.954391,54.058735,316226231
Ялга,Yalga,RU,Мордовия,городской округ Саранск,Ялга,ru:Ялга (Мордовия),45.127655,54.127609,316230125
Михайловское,Mikhaylovskoe,RU,Алтайский край,Михайловский район,Михайловское,ru:Михайловское (Алтайский край),79.7193176,51.8212486,316492711
Карабаново,Karabanovo,RU,Владимирская область,Александровский район,Карабаново,ru:Карабаново,38.6981274,56.3084431,317349619
Земетчино,Zemetchino,RU,Пензенская область,Земетчинский район,Земетчино,ru:Земетчино,42.618641,53.4947753,317365509
Шемышейка,Shemysheyka,RU,Пензенская область,Шемышейский район,Шемышейка,ru:Шемышейка,45.392784,52.894306,317365952
Октябрьский,Oktyabrskiy,RU,Московская область,городской округ Люберцы,Октябрьский,ru:Октябрьский (Люберецкий район),37.9743705,55.6086034,317470882
Еткуль,Yetkul,RU,Челябинская область,Еткульский район,Еткуль,ru:Еткуль,61.592037,54.828304,321203443
Менделеевск,Mendeleyevsk,RU,Татарстан,Менделеевский район,Менделеевск,ru:Менделеевск,52.308443,55.8878706,321322750
Судак,Sudak,,,,Судак,uk:Судак (місто),34.971099,44.8488369,321657923
Медведево,,RU,Марий Эл,Медведевский район,Медведево,ru:Медведево (Марий Эл),47.8030237,56.6332426,324648017
Николаевск-на-Амуре,Nikolayevsk-on-Amur,,,,Николаевск-на-Амуре,ru:Николаевск-на-Амуре,140.72493,53.138729,330401916
Бабаево,Babayevo,RU,Вологодская область,Бабаевский район,Бабаево,ru:Бабаево,35.940425,59.3969942,330402488
Новый Ургал,Novy Urgal,RU,Хабаровский край,Верхнебуреинский район,Новый Ургал,ru:Новый Ургал,132.605484,51.071144,330421322
Харп,Kharp,RU,Ямало-Ненецкий автономный округ,муниципальный округ Приуральский район,Харп,ru:Харп (посёлок городского типа),65.8009163,66.815163,330810024
Переяславка,Pereyaslavka,RU,Хабаровский край,район имени Лазо,Переяславка,ru:Переяславка,135.054947,47.968636,330823587
Хор,Khor,RU,Хабаровский край,район имени Лазо,Хор,ru:Хор (Хабаровский край),134.960938,47.882572,330823637
Сосногорск,Sosnogorsk,RU,,район Сосногорск,Сосногорск,ru:Сосногорск,53.9305546,63.5895298,330842003
Барда,Barda,RU,Пермский край,Бардымский муниципальный округ,Барда,ru:Барда (Пермский край),55.586967,56.930187,331180517
Алнаши,Alnashi,RU,Удмуртия,,Алнаши,ru:Алнаши,52.4755309,56.1848812,331569994
Ильинско-Подомское,Il'insko-Podomskoe,RU,Архангельская область,Вилегодский муниципальный округ,Ильинско-Подомское,ru:Ильинско-Подомское,47.97831,61.115704,331769948
Корткерос,,,,,Корткерос,ru:Корткерос,51.5744647,61.8130799,331793608
Богородицк,Bogoroditsk,RU,Тульская область,Богородицкий район,Богородицк,ru:Богородицк,38.126965,53.773571,332349574
Ефремов,Yefremov,RU,Тульская область,,Ефремов,ru:Ефремов (город),38.116188,53.141834,332350145
Задонск,Zadonsk,RU,Липецкая область,Задонский район,Задонск,ru:Задонск,38.92672,52.387798,332353039
Миллерово,Millerovo,RU,Ростовская область,Миллеровский район,Миллерово,ru:Миллерово,40.391854,48.9196264,332370326
Тарасовский,Tarasovsky,RU,Ростовская область,Тарасовский район,Тарасовский,ru:Тарасовский,40.3644632,48.7259206,332371008
Глубокий,Glubokiy,RU,Ростовская область,Каменский район,Глубокий,ru:Глубокий (Каменский район),40.3261435,48.5245462,332371503
Каменск-Шахтинский,Kamensk-Shakhtinsky,RU,Ростовская область,,Каменск-Шахтинский,ru:Каменск-Шахтинский,40.2650679,48.3210807,332371954
Елатьма,Elat'ma,RU,Рязанская область,Касимовский район,Елатьма,ru:Елатьма,41.752693,54.96917,333892426
Пронск,Pronsk,RU,Рязанская область,Пронский район,Пронск,ru:Пронск,39.605293,54.121353,333892499
Лесной,Lesnoy,RU,Рязанская область,Шиловский район,Лесной,ru:Лесной (Рязанская область),40.466309,54.212547,333892507
Шацк,Shatsk,RU,Рязанская область,Шацкий район,Шацк,ru:Шацк (город),41.712601,54.028687,333892554
Новомичуринск,Novomichurinsk,RU,Рязанская область,Пронский район,Новомичуринск,ru:Новомичуринск,39.744011,54.043011,333892561
Кораблино,Korablino,RU,Рязанская область,Кораблинский район,Кораблино,ru:Кораблино,40.019211,53.92099,333892583
Кизильское,Kizil'skoye,RU,Челябинская область,Кизильский район,Кизильское,ru:Кизильское,58.893696,52.72554,334357259
Баймак,Baymak,RU,Башкортостан,Баймакский район,Баймак,ru:Баймак,58.30756,52.597919,334357268
Октябрьское,Oktyabrskoye,RU,Оренбургская область,Октябрьский район,Октябрьское,ru:Октябрьское (Октябрьский район),55.507576,52.345226,334357270
Зилаир,Zilair,RU,Башкортостан,Зилаирский район,Зилаир,ru:Зилаир,57.441547,52.233707,334357276
Саракташ,Saraktash,RU,Оренбургская область,Саракташский район,Саракташ,ru:Саракташ,56.358513,51.787224,334357300
Адамовка,Adamovka,RU,Оренбургская область,Адамовский район,Адамовка,ru:Адамовка (Адамовский район),59.940235,51.520966,334357302
Гай,Gay,RU,Оренбургская область,Гайский городской округ,Гай,ru:Гай (город),58.440517,51.471443,334357309
Бреды,Bredy,RU,Челябинская область,Брединский район,Бреды,ru:Бреды,60.3372556,52.4223974,334357327
Акбулак,Akbulak,RU,Оренбургская область,Акбулакский район,Акбулак,ru:Акбулак,55.62648,51.006439,334357334
Учалы,Uchaly,RU,Башкортостан,,Учалы,ru:Учалы,59.384636,54.316597,334371735
Межозёрный,Mezhozyorny,RU,Челябинская область,Верхнеуральский район,Межозёрный,ru:Межозёрный (Челябинская область),59.374542,54.148026,334371739
Толбазы,Tolbazy,RU,Башкортостан,Аургазинский район,Толбазы,ru:Толбазы,55.886463,54.010342,334371755
Красноусольский,Krasnousolskij,RU,Башкортостан,Гафурийский район,Красноусольский,ru:Красноусольский,56.4705604,53.8961616,334371762
Верхнеуральск,Verkhneural'sk,RU,Челябинская область,Верхнеуральский район,Верхнеуральск,ru:Верхнеуральск,59.21138,53.878002,334371765
Фершампенуаз,Fershampenuaz,RU,Челябинская область,Нагайбакский район,Фершампенуаз,ru:Фершампенуаз (Челябинская область),59.8112001,53.5214103,334371776
Ишимбай,Ishimbay,RU,Башкортостан,Ишимбайский район,Ишимбай,ru:Ишимбай,56.0439119,53.4546454,334371777
Агаповка,Agapovka,RU,Челябинская область,Агаповский район,Агаповка,ru:Агаповка,59.134914,53.296947,334371783
Пласт,Plast,RU,Челябинская область,Пластовский район,Пласт,ru:Пласт (город),60.807091,54.369812,334371785
Чесма,Chesma,RU,Челябинская область,Чесменский район,Чесма,ru:Чесма (село),60.6532186,53.8131555,334371787
Уйское,Uyskoe,RU,Челябинская область,Уйский район,Уйское,ru:Уйское (Челябинская область),60.005447,54.373421,334371788
Карталы,Kartaly,RU,Челябинская область,Карталинский район,Карталы,ru:Карталы,60.639172,53.053261,334371795
Скопин,Skopin,RU,Рязанская область,,Скопин,ru:Скопин,39.549274,53.823524,334723403
Сараи,Sarai,RU,Рязанская область,Сараевский район,Сараи,ru:Сараи (Рязанская область),40.9967135,53.7212373,334723420
Милославское,Miloslavskoye,RU,Рязанская область,Милославский район,Милославское,ru:Милославское (Рязанская область),39.445062,53.579839,334723480
Староюрьево,Staroyuryevo,RU,Тамбовская область,Староюрьевский район,Староюрьево,ru:Староюрьево,40.6992188,53.3227111,334723506
Первомайский,Pervomayskiy,RU,Тамбовская область,Первомайский район,Первомайский,ru:Первомайский (Первомайский район; Тамбовская область),40.285099,53.244999,334723508
Чаплыгин,Chaplygin,RU,Липецкая область,Чаплыгинский район,Чаплыгин,ru:Чаплыгин (город),39.966801,53.243015,334723509
Данков,Dankov,RU,Липецкая область,Данковский район,Данков,ru:Данков,39.1591798,53.2533095,334723512
Сосновка,Sosnovka,RU,Тамбовская область,,Сосновка,ru:Сосновка (Тамбовская область),41.369202,53.232201,334723518
Лев Толстой,Lev Tolstoy,RU,Липецкая область,Лев-Толстовский район,Лев Толстой,ru:Лев Толстой (Липецкая область),39.4477568,53.212541,334723521
Мичуринск,Michurinsk,,Тамбовская область,,Мичуринск,ru:Мичуринск,40.5071721,52.8946613,334723558
Дмитриевка,,RU,Тамбовская область,Никифоровский район,Дмитриевка,ru:Дмитриевка (Тамбовская область),40.780201,52.892799,334723570
Доброе,Dobroye,RU,Липецкая область,Добровский район,Доброе,ru:Доброе (Липецкая область),39.8102066,52.8613369,334723573
Игарка,Igarka,RU,Красноярский край,Туруханский район,Игарка,ru:Игарка,86.5308425,67.4566185,335884516
Печора,Pechora,RU,,район Печора,Печора,ru:Печора (город),57.1616254,65.1155035,335978319
Водный,Vodny,RU,,,Водный,ru:Водный (Коми),53.408073,63.505032,335978335
Ярега,Yarega,RU,,,Ярега,ru:Ярега,53.576294,63.433319,335978346
Троицко-Печорск,Troitsko-Pechorsk,RU,,Троицко-Печорский район,Троицко-Печорск,ru:Троицко-Печорск,56.185379,62.714462,335978361
Емва,Yemva,RU,,Княжпогостский район,Емва,ru:Емва,50.887928,62.598297,335978390
Микунь,Mikun',RU,,Усть-Вымский район,Микунь,ru:Микунь,50.08218,62.358238,335978395
Верхняя Тойма,Verkhnyaya Toyma,RU,Архангельская область,Верхнетоемский муниципальный округ,Верхняя Тойма,ru:Верхняя Тойма,45.0007897,62.2353641,335978419
,,,,,Выльгорт,ru:Выльгорт,50.768478,61.627003,335978447
Красноборск,Krasnoborsk,RU,Архангельская область,Красноборский район,Красноборск,ru:Красноборск (Архангельская область),45.934135,61.556374,335978456
Вычегодский,Vychegodskiy,RU,Архангельская область,городской округ Котлас,Вычегодский,ru:Вычегодский,46.883759,61.248669,335978471
Коряжма,Koryazhma,RU,Архангельская область,городской округ Коряжма,Коряжма,ru:Коряжма,47.1607626,61.3151659,335978473
Сольвычегодск,Sol'vychegodsk,RU,Архангельская область,Котласский район,Сольвычегодск,ru:Сольвычегодск,46.918938,61.331333,335978476
Луза,Luza,RU,Кировская область,Лузский муниципальный округ,Луза,ru:Луза (город),47.2552897,60.6304027,335978498
Великий Устюг,Velikiy Ustyug,RU,Вологодская область,Великоустюгский район,Великий Устюг,ru:Великий Устюг,46.3014666,60.7612852,335978507
Красавино,Krasavino,RU,Вологодская область,Великоустюгский район,Красавино,ru:Красавино,46.4778243,60.9617195,335978516
Коноша,Konosha,RU,Архангельская область,Коношский район,Коноша,ru:Коноша,40.25671,60.973812,335978520
Чердынь,Cherdyn,RU,Пермский край,Чердынский городской округ,Чердынь,ru:Чердынь,56.4752752,60.4046807,335978540
Койгородок,Koygorodok,RU,,Койгородский район,Койгородок,ru:Койгородок,51.007,60.441257,335978558
Североуральск,Severouralsk,RU,Свердловская область,Североуральский городской округ,Североуральск,ru:Североуральск,59.960517,60.15016,335978564
Подосиновец,Podosinovets,RU,Кировская область,Подосиновский район,Подосиновец,ru:Подосиновец,47.06477,60.279064,335978567
Пинюг,Pinyug,RU,Кировская область,Подосиновский район,Пинюг,ru:Пинюг,47.785713,60.25053,335978568
Комсомольский,Komsomolskiy,RU,Коми,городской округ Воркута,Комсомольский,ru:Комсомольский (Коми),63.775955,67.553696,335978573
Воргашор,Vorgashor,RU,,,Воргашор,en:Vorgashor,63.783737,67.581192,335978588
Пионерский,Pionerskiy,RU,,Советский район,Пионерский,ru:Пионерский (Ханты-Мансийский автономный округ),62.8577766,61.1987694,335978595
Инта,Inta,RU,,,Инта,ru:Инта,60.13158,66.039749,335978609
Мегион,Megion,,,,Мегион,ru:Мегион,76.108215,61.035404,335978623
Октябрьское,Oktyabr'skoe,,,Октябрьский район,Октябрьское,ru:Октябрьское (Ханты-Мансийский автономный округ),66.045067,62.459541,335978637
Верхневилюйск,Verkhnevilyuysk,RU,Республика Саха (Якутия),Верхневилюйский улус,Верхневилюйск,ru:Верхневилюйск,120.3146678,63.4497609,335978670
Харовск,Kharovsk,RU,Вологодская область,Харовский район,Харовск,ru:Харовск,40.2068249,59.9533237,335978687
Сангар,Sangar,RU,Республика Саха (Якутия),Кобяйский улус,Сангар,ru:Сангар,127.466759,63.923618,335978691
Солигалич,Soligalish,,Костромская область,,Солигалич,ru:Солигалич,42.2861828,59.0777693,335978725
,,RU,Кировская область,,Лесной,ru:Лесной (Кировская область),52.129436,59.781719,335978729
Коса,Kosa,RU,Пермский край,Косинский муниципальный округ,Коса,ru:Коса (Косинский район),54.989826,59.944386,335978731
Никольск,Nikolsk,RU,Вологодская область,Никольский район,Никольск,ru:Никольск (Вологодская область),45.4585029,59.5304186,335978750
Нагорск,Nagorsk,RU,Кировская область,Нагорский район,Нагорск,ru:Нагорск,50.8017309,59.3159141,335978754
Кондинское,Kondinskoye,,,Кондинский район,Кондинское,ru:Кондинское (Ханты-Мансийский автономный округ),67.411819,59.651791,335978756
Мураши,Murashi,RU,Кировская область,Мурашинский муниципальный округ,Мураши,ru:Мураши,48.9644445,59.3951018,335978758
Междуреченский,Mezhdurechenskiy,,,Кондинский район,Междуреченский,ru:Междуреченский (Ханты-Мансийский автономный округ),65.908333,59.592403,335978760
Луговой,Lugovoy,,,Кондинский район,Луговой,ru:Луговой (Ханты-Мансийский автономный округ),65.8847745,59.7210166,335978771
Опарино,Oparino,RU,Кировская область,Опаринский муниципальный округ,Опарино,ru:Опарино,48.280041,59.84819,335978775
Юрла,Yurla,RU,Пермский край,Юрлинский муниципальный округ,Юрла,ru:Юрла,54.3246555,59.3286875,335978802
Гари,Gari,RU,Свердловская область,Гаринский городской округ,Гари,ru:Гари (Свердловская область),62.35247,59.427441,335978823
Юрья,Yurya,RU,Кировская область,Юрьянский район,Юрья,ru:Юрья,49.2802628,59.0422074,335978841
Сосьва,Sosva,RU,Свердловская область,Сосьвинский городской округ,Сосьва,ru:Сосьва (Сосьвинский городской округ),61.861935,59.173889,335978853
Красная Заря,Krasnaya Zarya,RU,Орловская область,Краснозоренский район,Красная Заря,ru:Красная Заря (Краснозоренский район),37.690243,52.780712,336140167
Рассказово,Rasskazovo,RU,Тамбовская область,,Рассказово,ru:Рассказово,41.879002,52.658699,336140198
Змиёвка,Zmiyevka,RU,Орловская область,Свердловский район,Змиёвка,ru:Змиёвка,36.380112,52.672192,336140200
Петровское,Petrovskoye,RU,Тамбовская область,,Петровское,ru:Петровское (Петровский район; Тамбовская область),40.2603,52.633202,336140217
Котовск,Kotovsk,RU,Тамбовская область,,Котовск,ru:Котовск (Тамбовская область),41.4994249,52.5870419,336140240
Локоть,Lokot,RU,Брянская область,Брасовский район,Локоть,ru:Локоть (Брянская область),34.5716674,52.572232,336140248
Дмитровск,Dmitrovsk-Orlovskiy,RU,Орловская область,Дмитровский район,Дмитровск,ru:Дмитровск,35.145725,52.509418,336140258
Тамала,Tamala,RU,Пензенская область,Тамалинский район,Тамала,ru:Тамала (Пензенская область),43.255024,52.539822,336140265
Грязи,Gryazi,RU,Липецкая область,Грязинский район,Грязи,ru:Грязи,39.955162,52.49612,336140276
Ливны,Livny,RU,Орловская область,городской округ Ливны,Ливны,ru:Ливны,37.6089,52.4253859,336140287
Сердобск,Serdobsk,,,,Сердобск,ru:Сердобск,44.213924,52.461506,336140289
Беково,Bekovo,RU,Пензенская область,Бековский район,Беково,ru:Беково (Пензенская область),43.7039446,52.4581207,336140293
Тросна,Trosna,RU,Орловская область,Троснянский район,Тросна,ru:Тросна (Орловская область),35.780979,52.448105,336140301
Малоархангельск,Maloarkhangelsk,RU,Орловская область,Малоархангельский район,Малоархангельск,ru:Малоархангельск (Орловская область),36.504021,52.399578,336140305
Комаричи,Komarichi,RU,Брянская область,Комаричский район,Комаричи,ru:Комаричи,34.788486,52.416153,336140311
Поныри,Ponyri,RU,Курская область,Поныровский район,Поныри,ru:Поныри,36.3020868,52.3192156,336140317
Инжавино,Inzhavino,RU,Тамбовская область,Инжавинский район,Инжавино,ru:Инжавино,42.498001,52.327301,336140318
Долгоруково,Dolgorukovo,RU,Липецкая область,Долгоруковский район,Долгоруково,ru:Долгоруково (Липецкая область),38.3495961,52.3243879,336140320
Ртищево,Rtishchevo,RU,,,Ртищево,ru:Ртищево,43.7877429,52.2599057,336140336
Колпна,Kolpna,RU,Орловская область,Колпнянский район,Колпна,ru:Колпна,37.028606,52.222736,336140362
Золотухино,Zolotukhino,RU,Курская область,Золотухинский район,Золотухино,ru:Золотухино (Курская область),36.3799043,52.0847664,336140367
Дмитриев,Dmitriyev,RU,Курская область,Дмитриевский район,Дмитриев,ru:Дмитриев (город),35.075439,52.12849,336140369
Тербуны,Terbuny,RU,Липецкая область,Тербунский район,Тербуны,ru:Тербуны,38.278389,52.146828,336140371
Усмань,Usman,RU,Липецкая область,Усманский район,Усмань,ru:Усмань,39.7399996,52.0506929,336140373
Добринка,Dobrinka,RU,Липецкая область,Добринский район,Добринка,ru:Добринка (Липецкая область),40.4772102,52.1658357,336140376
Долгое,Dolgoye,,Орловская область,,Долгое,ru:Долгое (Должанский район),37.5295749,52.0552637,336140383
Ржакса,Rzhaksa,RU,Тамбовская область,Ржаксинский район,Ржакса,ru:Ржакса,42.027302,52.135201,336140385
Уварово,Uvarovo,RU,Тамбовская область,,Уварово,ru:Уварово,42.258396,51.989845,336140398
Токарёвка,Tokarevka,RU,Тамбовская область,Токарёвский район,Токарёвка,ru:Токарёвка (Тамбовская область),41.1618,51.9939,336140399
Аркадак,Arkadak,RU,Саратовская область,Аркадакский район,Аркадак,ru:Аркадак,43.489098,51.942913,336140412
Кшенский,Kshenskiy,RU,Курская область,Советский район,Кшенский,ru:Кшенский,37.72422,51.84898,336140440
Мучкапский,Muchkapskiy,RU,Тамбовская область,Мучкапский район,Мучкапский,ru:Мучкапский,42.482399,51.8507,336140441
Жердевка,Zherdevka,RU,Тамбовская область,Жердевский район,Жердевка,ru:Жердевка,41.470367,51.843933,336140447
Щигры,Shchigry,RU,Курская область,городской округ Щигры,Щигры,ru:Щигры,36.9131896,51.870821,336140448
Эртиль,Ertil,RU,Воронежская область,Эртильский район,Эртиль,ru:Эртиль (город),40.7982804,51.8367188,336140450
Черемисиново,Cheremisinovo,RU,Курская область,Черемисиновский район,Черемисиново,ru:Черемисиново,37.2624053,51.8876751,336140452
Конышёвка,Konyshevka,RU,Курская область,Конышёвский район,Конышёвка,ru:Конышёвка,35.292969,51.846329,336140471
Верхняя Хава,Verkhnyaya Khava,RU,Воронежская область,Верхнехавский район,Верхняя Хава,ru:Верхняя Хава,39.9334627,51.8439568,336140474
Льгов,L'gov,,,,Льгов,ru:Льгов,35.2839999,51.6906587,336140489
Терновка,Ternovka,RU,Воронежская область,Терновский район,Терновка,ru:Терновка (Терновский район),41.590942,51.684982,336140500
Романовка,Romanovka,RU,Саратовская область,Романовский район,Романовка,ru:Романовка (Саратовская область),42.7557244,51.7410278,336140509
Нижнедевицк,Nizhnedevitsk,RU,Воронежская область,Нижнедевицкий район,Нижнедевицк,ru:Нижнедевицк (село),38.3638,51.5459,336140521
Рыльск,Rylsk,RU,Курская область,Рыльский район,Рыльск,ru:Рыльск,34.683506,51.570538,336140540
Латная,Latnaya,RU,Воронежская область,Семилукский район,Латная,ru:Латная,38.9011124,51.6568603,336140544
Посёлок имени Карла Либкнехта,Imeni Karla Libknekhta,RU,Курская область,Курчатовский район,Посёлок имени Карла Либкнехта,ru:Посёлок имени Карла Либкнехта,35.477493,51.623196,336140547
Тим,Tim,RU,Курская область,Тимский район,Тим,ru:Тим (Курская область),37.122578,51.621746,336140550
Панино,Panino,RU,Воронежская область,Панинский район,Панино,ru:Панино (Воронежская область),40.134346,51.648148,336140564
Балашов,Balashov,RU,Саратовская область,,Балашов,ru:Балашов (город),43.1717621,51.537084,336140569
Хохол,Khokhol,,Воронежская область,,Хохол,,38.7569796,51.5624502,336140573
Калининск,Kalininsk,RU,Саратовская область,Калининский район,Калининск,ru:Калининск,44.484581,51.499947,336140607
Горшечное,Gorshechnoye,RU,Курская область,Горшеченский район,Горшечное,ru:Горшечное,38.034916,51.521561,336140608
Солнцево,Solintsevo,RU,Курская область,Солнцевский район,Солнцево,ru:Солнцево (Курская область),36.749901,51.419552,336140636
Медвенка,Medvenka,RU,Курская область,Медвенский район,Медвенка,ru:Медвенка,36.118046,51.417706,336140669
Коренево,Korenevo,RU,Курская область,Кореневский район,Коренево,ru:Коренево,34.897091,51.414234,336140670
Глушково,Glushkovo,RU,Курская область,Глушковский район,Глушково,ru:Глушково (Курская область),34.6373099,51.3391315,336140693
Обоянь,Oboyan',RU,Курская область,Обоянский район,Обоянь,ru:Обоянь,36.276245,51.211079,336140698
Пристень,Pristen,RU,Курская область,Пристенский район,Пристень,ru:Пристень,36.6941094,51.236023,336140701
Линёво,Linevo,RU,Волгоградская область,Жирновский район,Линёво,ru:Линёво (Волгоградская область),44.822498,50.882702,336140727
Новохопёрск,Novokhopersk,RU,Воронежская область,Новохопёрский район,Новохопёрск,ru:Новохопёрск,41.616955,51.095146,336140733
Бобров,Bobrov,RU,Воронежская область,Бобровский район,Бобров,ru:Бобров (город),40.0307798,51.0967999,336140738
